eventdate,street,lat,long,x,y
30/09/2012,GREAT WINDMILL STREET,51.510685,-0.1339126,529596,180733
30/09/2012,QUEENSWAY,51.515408,-0.1882362,525813,181164
30/09/2012,WESTBOURNE GROVE,51.515175,-0.1939386,525418,181128
23/09/2013,BELGRAVE ROAD,51.49032,-0.138078,529364,178461
23/09/2013,CHESTER SQUARE,51.495533,-0.1495506,528553,179021
23/09/2013,DOVER STREET,51.508404,-0.1421695,529029,180465
23/09/2013,ECCLESTON STREET,51.49477,-0.1485436,528625,178937
23/09/2013,GREAT WESTERN ROAD,51.520588,-0.2003406,524959,181719
23/09/2013,LUPUS STREET,51.48819,-0.1381329,529366,178224
23/09/2013,QUEENSWAY,51.515408,-0.1882362,525813,181164
23/09/2013,REGENCY STREET,51.49346,-0.1322999,529756,178820
20/12/2012,GREAT WESTERN ROAD,51.520588,-0.2003406,524959,181719
28/02/2013,BREWER STREET,51.511192,-0.1361615,529438,180786
28/02/2013,DUKE STREET ST JAMES'S,51.50734,-0.1377797,529337,180354
28/02/2013,MARYLEBONE ROAD,51.52324,-0.1504129,528415,182100
28/02/2013,PICTON PLACE,51.515408,-0.1507841,528412,181228
28/02/2013,WIGMORE STREET,51.5158,-0.1521593,528315,181270
02/10/2012,ASHBRIDGE STREET,51.52327,-0.1680164,527194,182073
02/10/2012,BELGRAVE ROAD,51.49032,-0.138078,529364,178461
02/10/2012,BUCKINGHAM PALACE ROAD,51.492702,-0.147683,528691,178709
02/10/2012,ECCLESTON BRIDGE,51.494102,-0.1466265,528760,178867
02/10/2012,ELIZABETH STREET,51.493107,-0.149751,528546,178750
02/10/2012,HUGH STREET,51.49281,-0.1449647,528879,178726
02/10/2012,STRUTTON GROUND,51.496624,-0.1336809,529652,179170
02/10/2012,VAUXHALL BRIDGE ROAD,51.490948,-0.1342075,529631,178538
10/07/2012,ALDFORD STREET,51.50885,-0.1523109,528324,180497
10/07/2012,COVENTRY STREET,51.510105,-0.1334536,529629,180669
10/07/2012,DENMAN STREET,51.51075,-0.1339844,529590,180740
10/07/2012,LEICESTER SQUARE,51.510597,-0.1308323,529810,180729
10/07/2012,MARBLE ARCH,51.513344,-0.1590076,527847,180985
10/07/2012,MELCOMBE PLACE,51.52232,-0.1624039,527586,181977
10/07/2012,Not Recorded,0.0,0.0,0,0
10/07/2012,PICCADILLY CIRCUS,51.510098,-0.134549,529553,180667
10/07/2012,TERMINUS PLACE,51.49606,-0.1447318,528886,179088
10/07/2012,VAUXHALL BRIDGE,51.488647,-0.129375,529973,178291
10/07/2012,WHITCOMB STREET,51.50816,-0.1297861,529889,180460
10/07/2012,WILTON ROAD,51.49502,-0.1426527,529033,178976
18/10/2012,BUCKINGHAM PALACE ROAD,51.492702,-0.147683,528691,178709
18/10/2012,GROSVENOR PLACE,51.500652,-0.1497466,528525,179590
18/10/2012,HOBART PLACE,51.497486,-0.1491082,528578,179238
18/10/2012,LEICESTER SQUARE,51.510597,-0.1308323,529810,180729
18/10/2012,MORETON STREET,51.489845,-0.1356066,529537,178413
18/10/2012,TYLER'S COURT,51.51328,-0.1338857,529590,181022
18/10/2012,VILLIERS STREET,51.508396,-0.1243436,530266,180496
17/10/2012,BELGRAVE ROAD,51.49032,-0.138078,529364,178461
17/10/2012,BUCKINGHAM PALACE ROAD,51.492702,-0.147683,528691,178709
17/10/2012,ECCLESTON BRIDGE,51.494102,-0.1466265,528760,178867
17/10/2012,ECCLESTON PLACE,51.49433,-0.1473808,528707,178891
17/10/2012,PADDINGTON STREET,51.520657,-0.1539374,528178,181807
17/10/2012,VAUXHALL BRIDGE ROAD,51.490948,-0.1342075,529631,178538
16/08/2012,PICCADILLY CIRCUS,51.50986,-0.1348469,529533,180640
16/08/2012,REGENT STREET,51.516247,-0.1423526,528994,181336
16/08/2012,TERMINUS PLACE,51.49618,-0.1451965,528853,179100
16/08/2012,VICTORIA STREET,51.49657,-0.1428958,529012,179148
12/02/2013,ASHLEY PLACE,51.496082,-0.141601,529103,179096
12/02/2013,BUCKINGHAM PALACE ROAD,51.492702,-0.147683,528691,178709
12/02/2013,FRANCIS STREET,51.496666,-0.1370714,529416,179169
12/02/2013,KNIGHTSBRIDGE,51.502438,-0.1562014,528072,179777
12/02/2013,MELCOMBE PLACE,51.52232,-0.1624039,527586,181977
12/02/2013,Not Recorded,51.514595,-0.131252,529769,181173
12/02/2013,ST JAMES'S STREET,51.5057,-0.1384752,529293,180171
12/02/2013,TERMINUS PLACE,51.49606,-0.1447318,528886,179088
12/02/2013,UPPER BERKELEY STREET,51.515984,-0.1570235,527977,181282
12/02/2013,VICTORIA STREET,51.49657,-0.1428958,529012,179148
12/02/2013,WARDOUR STREET,51.51233,-0.1329589,529657,180918
14/07/2012,BUCKINGHAM PALACE ROAD,51.492702,-0.147683,528691,178709
14/07/2012,GOODWIN'S COURT,51.51086,-0.1270238,530073,180765
14/07/2012,GROSVENOR GARDENS,51.495914,-0.1454804,528835,179070
14/07/2012,LISLE STREET,51.511753,-0.1293796,529907,180860
14/07/2012,Not Recorded,0.0,0.0,0,0
14/07/2012,RUPERT STREET,51.511482,-0.1330534,529653,180823
14/07/2012,TORQUAY STREET,51.51997,-0.1921438,525529,181664
14/07/2012,VICTORIA STREET,51.49657,-0.1428958,529012,179148
10/09/2013,BRESSENDEN PLACE,51.497925,-0.1431145,528993,179298
10/09/2013,BUCKINGHAM PALACE ROAD,51.492702,-0.147683,528691,178709
10/09/2013,ECCLESTON SQUARE,51.492588,-0.1428849,529024,178705
10/09/2013,EDGWARE ROAD,51.517857,-0.1671549,527269,181472
10/09/2013,GROSVENOR GARDENS,51.495914,-0.1454804,528835,179070
10/09/2013,GROSVENOR ROAD,51.485706,-0.1456131,528854,177935
10/09/2013,LONGMOORE STREET,51.492905,-0.1396595,529247,178746
10/09/2013,MARYLEBONE ROAD,51.52324,-0.1504129,528415,182100
10/09/2013,VAUXHALL BRIDGE,51.488647,-0.129375,529973,178291
10/09/2013,VAUXHALL BRIDGE ROAD,51.490948,-0.1342075,529631,178538
10/09/2013,VICTORIA STREET,51.49657,-0.1428958,529012,179148
30/07/2012,BELL STREET,51.52132,-0.1680803,527195,181856
30/07/2012,BROADWICK STREET,51.513233,-0.1370583,529370,181011
30/07/2012,BRYDGES PLACE,51.50971,-0.1269126,530084,180637
30/07/2012,GREAT WINDMILL STREET,51.510685,-0.1339126,529596,180733
30/07/2012,Not Recorded,0.0,0.0,0,0
30/07/2012,PICCADILLY,51.50311,-0.1497623,528517,179863
17/06/2013,BAYSWATER ROAD,51.512917,-0.1632581,527553,180930
17/06/2013,BRESSENDEN PLACE,51.497925,-0.1431145,528993,179298
17/06/2013,BUCKINGHAM PALACE ROAD,51.492702,-0.147683,528691,178709
17/06/2013,EDGWARE ROAD,51.517857,-0.1671549,527269,181472
17/06/2013,GROSVENOR GARDENS,51.495914,-0.1454804,528835,179070
17/06/2013,MARYLEBONE ROAD,51.52324,-0.1504129,528415,182100
17/06/2013,Not Recorded,0.0,0.0,0,0
17/06/2013,PRAED STREET,51.515957,-0.1749476,526734,181248
17/06/2013,SUSSEX GARDENS,51.51472,-0.1735193,526836,181113
17/06/2013,WESTBOURNE TERRACE,51.51552,-0.1791649,526442,181191
17/06/2013,WILTON ROAD,51.49502,-0.1426527,529033,178976
25/03/2013,CHILWORTH STREET,51.515045,-0.1803088,526364,181137
25/03/2013,CLEVELAND SQUARE,51.514828,-0.1832436,526161,181108
25/03/2013,DORSET SQUARE,51.522987,-0.1602147,527736,182055
25/03/2013,PARK ROAD,51.529495,-0.1671315,527238,182766
25/03/2013,WESTBOURNE GROVE,51.515175,-0.1939386,525418,181128
24/06/2012,EDGWARE ROAD,51.517857,-0.1671549,527269,181472
04/03/2013,CAMBRIDGE STREET,51.488537,-0.1403703,529210,178259
04/03/2013,ECCLESTON SQUARE,51.492588,-0.1428849,529024,178705
04/03/2013,ESSEX STREET,51.512638,-0.112827,531053,180988
04/03/2013,HAYMARKET,51.510117,-0.1333568,529636,180671
04/03/2013,KENSINGTON GARDENS SQUARE,51.514603,-0.190776,525639,181070
04/03/2013,KILRAVOCK STREET,51.52958,-0.211462,524163,182700
04/03/2013,TERMINUS PLACE,51.49606,-0.1447318,528886,179088
04/03/2013,VAUXHALL BRIDGE ROAD,51.490948,-0.1342075,529631,178538
22/04/2013,ABBEY ROAD,51.532787,-0.1781019,526468,183114
22/04/2013,BAYSWATER ROAD,51.512917,-0.1632581,527553,180930
22/04/2013,BUCKINGHAM GATE,51.500042,-0.1407178,529153,179537
22/04/2013,BUCKINGHAM PALACE ROAD,51.492702,-0.147683,528691,178709
22/04/2013,COVENTRY STREET,51.510105,-0.1334536,529629,180669
22/04/2013,ECCLESTON STREET,51.49477,-0.1485436,528625,178937
22/04/2013,LANCASTER GATE,51.511135,-0.1829438,526192,180698
22/04/2013,RUPERT STREET,51.511482,-0.1330534,529653,180823
22/04/2013,VICTORIA STREET,51.49657,-0.1428958,529012,179148
22/04/2013,VINCENT SQUARE,51.49302,-0.1337485,529657,178769
22/04/2013,WESTBOURNE PARK ROAD,51.51799,-0.1911462,525604,181446
22/04/2013,WESTBOURNE TERRACE,51.51552,-0.1791649,526442,181191
02/01/2013,BUCKINGHAM PALACE ROAD,51.492702,-0.147683,528691,178709
02/01/2013,CHARING CROSS,51.50735,-0.1280092,530015,180373
02/01/2013,SHAFTESBURY AVENUE,51.511116,-0.1335539,529619,180782
02/01/2013,TAVISTOCK CRESCENT,51.520363,-0.200926,524919,181693
02/01/2013,UPPER TACHBROOK STREET,51.49351,-0.139593,529250,178813
02/01/2013,VAUXHALL BRIDGE ROAD,51.490948,-0.1342075,529631,178538
02/01/2013,VICTORIA STREET,51.49657,-0.1428958,529012,179148
02/01/2013,WARWICK WAY,51.490376,-0.1462504,528797,178453
21/12/2012,COVENTRY STREET,51.510105,-0.1334536,529629,180669
21/12/2012,ECCLESTON SQUARE,51.492588,-0.1428849,529024,178705
21/12/2012,ECCLESTON STREET,51.49477,-0.1485436,528625,178937
21/12/2012,ELIZABETH STREET,51.493107,-0.149751,528546,178750
21/12/2012,VAUXHALL BRIDGE ROAD,51.490948,-0.1342075,529631,178538
10/11/2012,BAYSWATER ROAD,51.512917,-0.1632581,527553,180930
10/11/2012,LEICESTER SQUARE,51.510597,-0.1308323,529810,180729
15/05/2012,BAKER STREET,51.51945,-0.156278,528019,181669
15/05/2012,BAYSWATER ROAD,51.512917,-0.1632581,527553,180930
15/05/2012,ECCLESTON STREET,51.49477,-0.1485436,528625,178937
15/05/2012,EDGWARE ROAD,51.517857,-0.1671549,527269,181472
15/05/2012,GLOUCESTER PLACE,51.5191,-0.1584399,527870,181626
15/05/2012,HARROW ROAD,51.52653,-0.2079486,524415,182367
15/05/2012,MARYLEBONE ROAD,51.52324,-0.1504129,528415,182100
15/05/2012,Not Recorded,0.0,0.0,0,0
15/05/2012,PICCADILLY,51.50311,-0.1497623,528517,179863
15/05/2012,PORTNALL ROAD,51.531013,-0.2041248,524668,182872
15/05/2012,WESTBOURNE TERRACE ROAD,51.52043,-0.1843544,526069,181729
27/04/2012,Not Recorded,0.0,0.0,0,0
27/04/2012,STILLINGTON STREET,51.494926,-0.1385254,529320,178973
06/06/2013,BUCKINGHAM PALACE ROAD,51.492702,-0.147683,528691,178709
06/06/2013,ECCLESTON BRIDGE,51.494102,-0.1466265,528760,178867
06/06/2013,ELIZABETH BRIDGE,51.49252,-0.1477711,528685,178689
06/06/2013,GROSVENOR ROAD,51.485706,-0.1456131,528854,177935
06/06/2013,VAUXHALL BRIDGE ROAD,51.490948,-0.1342075,529631,178538
06/06/2013,WARWICK WAY,51.490376,-0.1462504,528797,178453
06/06/2013,WILTON ROAD,51.49502,-0.1426527,529033,178976
25/11/2012,GLOUCESTER TERRACE,51.51769,-0.1886357,525779,181417
03/07/2012,BUCKINGHAM GATE,51.500042,-0.1407178,529153,179537
03/07/2012,BUCKINGHAM PALACE ROAD,51.492702,-0.147683,528691,178709
03/07/2012,GROSVENOR GARDENS,51.495914,-0.1454804,528835,179070
03/07/2012,SIXTH AVENUE,51.529263,-0.2131756,524045,182662
03/07/2012,TERMINUS PLACE,51.49606,-0.1447318,528886,179088
03/07/2012,VICTORIA STREET,51.49657,-0.1428958,529012,179148
03/07/2012,WARWICK WAY,51.490376,-0.1462504,528797,178453
03/07/2012,WILTON ROAD,51.49502,-0.1426527,529033,178976
18/03/2013,ECCLESTON BRIDGE,51.494102,-0.1466265,528760,178867
18/03/2013,ECCLESTON PLACE,51.49433,-0.1473808,528707,178891
18/03/2013,GILLINGHAM ROW,51.49408,-0.1407208,529170,178875
18/03/2013,HANWAY STREET,51.509796,-0.1279754,530010,180645
18/03/2013,KNIGHTSBRIDGE,51.502438,-0.1562014,528072,179777
18/03/2013,TERMINUS PLACE,51.49606,-0.1447318,528886,179088
18/03/2013,VAUXHALL BRIDGE ROAD,51.490948,-0.1342075,529631,178538
18/03/2013,VICTORIA STREET,51.49657,-0.1428958,529012,179148
18/03/2013,WARWICK WAY,51.490376,-0.1462504,528797,178453
18/03/2013,WATERLOO BRIDGE,51.506084,-0.1147406,530939,180256
18/03/2013,WILTON ROAD,51.49502,-0.1426527,529033,178976
16/02/2013,CRAVEN STREET,51.50783,-0.1255341,530185,180431
16/02/2013,Not Recorded,0.0,0.0,0,0
16/02/2013,VAUXHALL BRIDGE ROAD,51.490948,-0.1342075,529631,178538
16/02/2013,WILTON ROAD,51.49502,-0.1426527,529033,178976
06/09/2013,CAMBRIDGE STREET,51.488537,-0.1403703,529210,178259
06/09/2013,EBURY BRIDGE ROAD,51.488445,-0.1507495,528490,178230
06/09/2013,LEICESTER SQUARE,51.510597,-0.1308323,529810,180729
06/09/2013,LUPUS STREET,51.48819,-0.1381329,529366,178224
06/09/2013,PALL MALL,51.50619,-0.135376,529507,180231
06/09/2013,PICCADILLY CIRCUS,51.510098,-0.134549,529553,180667
06/09/2013,TERMINUS PLACE,51.49606,-0.1447318,528886,179088
06/09/2013,VAUXHALL BRIDGE,51.488647,-0.129375,529973,178291
06/09/2013,VAUXHALL BRIDGE ROAD,51.490948,-0.1342075,529631,178538
06/09/2013,WILTON ROAD,51.49502,-0.1426527,529033,178976
11/03/2013,CORLETT STREET,51.521122,-0.170337,527039,181830
11/03/2013,DORSET SQUARE,51.522987,-0.1602147,527736,182055
11/03/2013,ELIZABETH STREET,51.493107,-0.149751,528546,178750
11/03/2013,KILBURN LANE,51.53131,-0.2153301,523890,182886
11/03/2013,PIMLICO ROAD,51.49067,-0.1522254,528381,178475
11/06/2013,BAKER STREET,51.51945,-0.156278,528019,181669
11/06/2013,BERKELEY STREET,51.50893,-0.1441656,528889,180520
11/06/2013,BRIDGE PLACE,51.49338,-0.1446252,528901,178790
11/06/2013,BROADWICK STREET,51.513233,-0.1370583,529370,181011
11/06/2013,BUCKINGHAM PALACE ROAD,51.492702,-0.147683,528691,178709
11/06/2013,ECCLESTON PLACE,51.49433,-0.1473808,528707,178891
11/06/2013,ELIZABETH BRIDGE,51.49252,-0.1477711,528685,178689
11/06/2013,GROSVENOR GARDENS,51.495914,-0.1454804,528835,179070
11/06/2013,OLD MARYLEBONE ROAD,51.519005,-0.1663096,527324,181601
11/06/2013,TERMINUS PLACE,51.49606,-0.1447318,528886,179088
11/06/2013,UPPER TACHBROOK STREET,51.49351,-0.139593,529250,178813
11/06/2013,WILTON ROAD,51.49502,-0.1426527,529033,178976
14/01/2013,BAYSWATER ROAD,51.512917,-0.1632581,527553,180930
19/06/2012,DEVONSHIRE CLOSE,51.52145,-0.14726,528639,181907
19/06/2012,LEXINGTON STREET,51.51185,-0.1349818,529518,180861
19/06/2012,VICTORIA STREET,51.49657,-0.1428958,529012,179148
14/05/2013,ROCHESTER ROW,51.493763,-0.1371754,529417,178846
04/10/2012,BLANDFORD STREET,51.517902,-0.1571334,527964,181495
04/10/2012,BUCKINGHAM GATE,51.500042,-0.1407178,529153,179537
04/10/2012,ECCLESTON STREET,51.49477,-0.1485436,528625,178937
04/10/2012,VINCENT STREET,51.492977,-0.1311859,529835,178769
17/02/2013,BOURCHIER STREET,51.512947,-0.1328859,529660,180986
17/02/2013,PICCADILLY CIRCUS,51.510098,-0.134549,529553,180667
17/02/2013,WESTBOURNE GROVE,51.515175,-0.1939386,525418,181128
01/09/2012,FRITH STREET,51.514004,-0.1317807,529734,181106
01/09/2012,OXFORD STREET,51.51545,-0.1406854,529112,181251
01/09/2012,PORCHESTER PLACE,51.515083,-0.1655634,527387,181167
27/04/2013,BAKER STREET,51.51945,-0.156278,528019,181669
27/04/2013,BRESSENDEN PLACE,51.497925,-0.1431145,528993,179298
27/04/2013,BRIDGE PLACE,51.49338,-0.1446252,528901,178790
27/04/2013,HARROW ROAD,51.52653,-0.2079486,524415,182367
27/04/2013,LONDON STREET,51.51669,-0.1757188,526678,181328
27/04/2013,UPPER TACHBROOK STREET,51.49351,-0.139593,529250,178813
27/04/2013,VAUXHALL BRIDGE ROAD,51.490948,-0.1342075,529631,178538
27/04/2013,VICTORIA STREET,51.49657,-0.1428958,529012,179148
27/04/2013,WARWICK WAY,51.490376,-0.1462504,528797,178453
27/04/2013,WESTBOURNE GROVE,51.515175,-0.1939386,525418,181128
04/07/2012,BENNET STREET,51.507217,-0.1399854,529184,180337
04/07/2012,BUCKINGHAM PALACE ROAD,51.492702,-0.147683,528691,178709
04/07/2012,ELIZABETH STREET,51.493107,-0.149751,528546,178750
04/07/2012,JERMYN STREET,51.507893,-0.1383138,529298,180415
04/07/2012,LITTLE PORTLAND STREET,51.51714,-0.1414102,529057,181438
04/07/2012,PRAED STREET,51.515957,-0.1749476,526734,181248
04/07/2012,QUEENSWAY,51.515408,-0.1882362,525813,181164
04/07/2012,WARWICK AVENUE,51.523655,-0.1851843,526002,182086
04/07/2012,WILTON ROAD,51.49502,-0.1426527,529033,178976
12/07/2012,BUCKINGHAM PALACE ROAD,51.492702,-0.147683,528691,178709
12/07/2012,BURNE STREET,51.520916,-0.1692065,527118,181809
12/07/2012,ECCLESTON SQUARE,51.492588,-0.1428849,529024,178705
12/07/2012,ELIZABETH STREET,51.493107,-0.149751,528546,178750
12/07/2012,GREAT WINDMILL STREET,51.510685,-0.1339126,529596,180733
12/07/2012,HANWAY STREET,51.509796,-0.1279754,530010,180645
12/07/2012,HUGH STREET,51.49281,-0.1449647,528879,178726
12/07/2012,LEICESTER SQUARE,51.510597,-0.1308323,529810,180729
12/07/2012,LISLE STREET,51.511753,-0.1293796,529907,180860
12/07/2012,MARYLEBONE ROAD,51.52324,-0.1504129,528415,182100
12/07/2012,ORANGE STREET,51.509495,-0.1299477,529874,180608
12/07/2012,PARK ROAD,51.526485,-0.162943,527537,182439
12/07/2012,SHELDON SQUARE,51.531372,-0.2071436,524458,182906
12/07/2012,STAFFORD STREET,51.508663,-0.1415104,529074,180495
12/07/2012,WESTBOURNE PARK VILLAS,51.518692,-0.1889706,525753,181528
12/07/2012,WHITCOMB STREET,51.50816,-0.1297861,529889,180460
20/03/2013,CAMBRIDGE STREET,51.488537,-0.1403703,529210,178259
20/03/2013,HARROW ROAD,51.52653,-0.2079486,524415,182367
20/03/2013,MARBLE ARCH,51.513344,-0.1590076,527847,180985
20/03/2013,TEMPLE PLACE,51.511017,-0.1149549,530910,180804
20/03/2013,TYLER'S COURT,51.51328,-0.1338857,529590,181022
20/03/2013,VICTORIA STREET,51.49657,-0.1428958,529012,179148
20/03/2013,WARWICK WAY,51.490376,-0.1462504,528797,178453
20/03/2013,WILTON ROAD,51.49502,-0.1426527,529033,178976
16/09/2013,ARTILLERY ROW,51.49695,-0.1356048,529517,179203
16/09/2013,BAKER STREET,51.51945,-0.156278,528019,181669
16/09/2013,BISHOP'S BRIDGE ROAD,51.516167,-0.1871855,525884,181250
16/09/2013,BUCKINGHAM GATE,51.500042,-0.1407178,529153,179537
16/09/2013,DUKE STREET,51.51647,-0.1525069,528289,181344
16/09/2013,PICCADILLY,51.50311,-0.1497623,528517,179863
16/09/2013,ST GEORGE'S DRIVE,51.48896,-0.1398633,529244,178307
16/09/2013,STATION FORECOURT CHARING CROSS,51.508392,-0.1257992,530165,180493
16/09/2013,VICTORIA STREET,51.49657,-0.1428958,529012,179148
16/09/2013,WINCHESTER STREET,51.488346,-0.1424667,529065,178234
13/09/2013,BAKER STREET,51.51945,-0.156278,528019,181669
13/09/2013,BLANDFORD STREET,51.517902,-0.1571334,527964,181495
13/09/2013,DUKE STREET,51.51647,-0.1525069,528289,181344
13/09/2013,JAMES STREET,51.51231,-0.1231308,530339,180933
13/09/2013,OLD BOND STREET,51.50891,-0.1408518,529119,180524
06/03/2013,BUCKINGHAM PALACE ROAD,51.492702,-0.147683,528691,178709
06/03/2013,ECCLESTON BRIDGE,51.494102,-0.1466265,528760,178867
06/03/2013,GREAT CUMBERLAND PLACE,51.514194,-0.1593441,527821,181079
06/03/2013,PRINCES SQUARE,51.51305,-0.1912772,525609,180896
06/03/2013,TERMINUS PLACE,51.49606,-0.1447318,528886,179088
06/03/2013,VICTORIA STREET,51.49657,-0.1428958,529012,179148
12/12/2012,BELGRAVE ROAD,51.49032,-0.138078,529364,178461
12/12/2012,BUCKINGHAM PALACE ROAD,51.492702,-0.147683,528691,178709
12/12/2012,ECCLESTON BRIDGE,51.494102,-0.1466265,528760,178867
12/12/2012,OXFORD STREET,51.51545,-0.1406854,529112,181251
12/12/2012,PRAED STREET,51.515957,-0.1749476,526734,181248
12/12/2012,TERMINUS PLACE,51.49606,-0.1447318,528886,179088
12/12/2012,WARWICK WAY,51.490376,-0.1462504,528797,178453
29/04/2013,ALDERNEY STREET,51.489693,-0.1440829,528949,178381
29/04/2013,BULLEID WAY,51.493763,-0.1455167,528838,178831
29/04/2013,DELAMERE TERRACE,51.522053,-0.187027,525879,181904
29/04/2013,ECCLESTON BRIDGE,51.494102,-0.1466265,528760,178867
29/04/2013,HUGH STREET,51.49281,-0.1449647,528879,178726
29/04/2013,MELCOMBE STREET,51.522713,-0.1600959,527745,182025
29/04/2013,NORFOLK SQUARE,51.51642,-0.172798,526881,181303
29/04/2013,VICTORIA STREET,51.49657,-0.1428958,529012,179148
29/04/2013,WARWICK WAY,51.490376,-0.1462504,528797,178453
12/10/2012,HAY HILL,51.50893,-0.1441656,528889,180520
12/10/2012,LEINSTER SQUARE,51.513634,-0.1914341,525596,180961
12/10/2012,MAIDA VALE,51.53088,-0.1844811,526031,182891
12/10/2012,VAUXHALL BRIDGE ROAD,51.490948,-0.1342075,529631,178538
12/10/2012,WILTON ROAD,51.49502,-0.1426527,529033,178976
04/08/2012,BRIDGE PLACE,51.49338,-0.1446252,528901,178790
04/08/2012,CHARLWOOD STREET,51.48896,-0.1398633,529244,178307
04/08/2012,LUPUS STREET,51.48819,-0.1381329,529366,178224
04/08/2012,Not Recorded,0.0,0.0,0,0
04/08/2012,SHAFTESBURY AVENUE,51.511116,-0.1335539,529619,180782
04/08/2012,VAUXHALL BRIDGE ROAD,51.490948,-0.1342075,529631,178538
20/01/2013,Not Recorded,0.0,0.0,0,0
13/04/2013,CAMBRIDGE STREET,51.488537,-0.1403703,529210,178259
13/04/2013,ECCLESTON PLACE,51.49433,-0.1473808,528707,178891
13/04/2013,STRAND,51.51249,-0.1159893,530834,180966
13/04/2013,VICTORIA STREET,51.49657,-0.1428958,529012,179148
13/04/2013,WARWICK WAY,51.490376,-0.1462504,528797,178453
14/08/2012,Not Recorded,0.0,0.0,0,0
14/08/2012,OXFORD STREET,51.51545,-0.1406854,529112,181251
14/08/2012,SHAFTESBURY AVENUE,51.511116,-0.1335539,529619,180782
14/08/2012,VAUXHALL BRIDGE ROAD,51.490948,-0.1342075,529631,178538
14/08/2012,WILTON ROAD,51.49502,-0.1426527,529033,178976
27/11/2012,ASHLEY PLACE,51.496082,-0.141601,529103,179096
27/11/2012,BUCKINGHAM GATE,51.500042,-0.1407178,529153,179537
27/11/2012,CASTLE LANE,51.49843,-0.139204,529263,179361
27/11/2012,GILLINGHAM STREET,51.49421,-0.1408741,529159,178889
27/11/2012,HATHERLEY STREET,51.493114,-0.1370003,529431,178774
27/11/2012,LONG'S COURT,51.50972,-0.1300249,529868,180633
27/11/2012,PALACE STREET,51.496956,-0.139264,529263,179197
27/11/2012,SOUTH MOLTON STREET,51.514175,-0.1490951,528532,181094
27/11/2012,VAUXHALL BRIDGE ROAD,51.490948,-0.1342075,529631,178538
27/11/2012,WARWICK WAY,51.490376,-0.1462504,528797,178453
09/06/2012,GROSVENOR PLACE,51.500652,-0.1497466,528525,179590
09/06/2012,HARROW ROAD,51.52653,-0.2079486,524415,182367
09/06/2012,Not Recorded,0.0,0.0,0,0
25/05/2012,BUCKINGHAM GATE,51.500042,-0.1407178,529153,179537
25/05/2012,BUCKINGHAM PALACE ROAD,51.492702,-0.147683,528691,178709
25/05/2012,GROSVENOR GARDENS,51.495914,-0.1454804,528835,179070
25/05/2012,Not Recorded,0.0,0.0,0,0
25/05/2012,VICTORIA STREET,51.49657,-0.1428958,529012,179148
25/05/2012,WILTON ROAD,51.49502,-0.1426527,529033,178976
20/04/2012,PICCADILLY CIRCUS,51.510098,-0.134549,529553,180667
20/04/2012,RANDOLPH AVENUE,51.527542,-0.1831121,526135,182522
20/05/2013,COSWAY STREET,51.5219,-0.166183,527325,181924
08/09/2012,BUCKINGHAM PALACE ROAD,51.492702,-0.147683,528691,178709
08/09/2012,QUEENSWAY,51.515408,-0.1882362,525813,181164
08/09/2012,ST JAMES'S MARKET,51.50925,-0.133373,529637,180575
08/09/2012,ST STEPHEN'S GARDENS,51.518166,-0.1960399,525264,181457
11/04/2012,ALEXANDER STREET,51.51768,-0.1926862,525498,181409
11/04/2012,BUCKINGHAM PALACE ROAD,51.492702,-0.147683,528691,178709
11/04/2012,GILLINGHAM STREET,51.49421,-0.1408741,529159,178889
11/04/2012,HARROW ROAD,51.52653,-0.2079486,524415,182367
11/04/2012,Not Recorded,0.0,0.0,0,0
11/04/2012,SHIRLAND ROAD,51.525486,-0.1914112,525565,182279
26/04/2012,CHESTER ROW,51.49293,-0.1533727,528295,178725
26/04/2012,Not Recorded,0.0,0.0,0,0
26/04/2012,RADNOR MEWS,51.514748,-0.1721333,526932,181118
26/04/2012,REGENT STREET,51.516247,-0.1423526,528994,181336
07/08/2012,BREWER STREET,51.511192,-0.1361615,529438,180786
07/08/2012,BUCKINGHAM GATE,51.500042,-0.1407178,529153,179537
07/08/2012,CHILTERN STREET,51.51964,-0.1552036,528093,181692
07/08/2012,VAUXHALL BRIDGE ROAD,51.490948,-0.1342075,529631,178538
28/08/2013,HOWICK PLACE,51.496666,-0.1370714,529416,179169
28/08/2013,INVERNESS TERRACE,51.512222,-0.1863594,525952,180813
28/08/2013,KENSINGTON GARDENS SQUARE,51.514603,-0.190776,525639,181070
28/08/2013,LUPUS STREET,51.48819,-0.1381329,529366,178224
28/08/2013,PARK LANE,51.506317,-0.1523064,528332,180215
28/08/2013,PORCHESTER ROAD,51.517197,-0.1881652,525813,181363
28/08/2013,SHOULDHAM STREET,51.51885,-0.1646914,527437,181587
28/08/2013,SPENCER PLACE,51.496426,-0.1359865,529492,179144
28/08/2013,TACHBROOK STREET,51.49196,-0.1384015,529337,178643
28/08/2013,VICTORIA STREET,51.49657,-0.1428958,529012,179148
28/08/2013,WESTBOURNE GROVE,51.515175,-0.1939386,525418,181128
25/04/2012,BROADWAY,51.497852,-0.1339976,529626,179306
25/04/2012,EATON LANE,51.497013,-0.1446505,528889,179194
25/04/2012,NOTTINGHAM PLACE,51.52131,-0.1530894,528235,181881
25/04/2012,OLD PYE STREET,51.497536,-0.1323392,529742,179274
25/04/2012,SOUTHAMPTON STREET,51.511536,-0.1226869,530372,180848
02/09/2013,CAMBRIDGE STREET,51.488537,-0.1403703,529210,178259
02/09/2013,COVENTRY STREET,51.510105,-0.1334536,529629,180669
02/09/2013,FORSET STREET,51.51656,-0.1643671,527466,181333
02/09/2013,GREAT WESTERN ROAD,51.520588,-0.2003406,524959,181719
02/09/2013,HAY'S MEWS,51.50806,-0.1482792,528606,180416
02/09/2013,HOMER STREET,51.518986,-0.1638786,527493,181604
02/09/2013,PALACE COURT,51.512012,-0.1924207,525532,180779
02/09/2013,PORCHESTER ROAD,51.517197,-0.1881652,525813,181363
02/09/2013,UPPER BERKELEY STREET,51.515984,-0.1570235,527977,181282
02/09/2013,WESTBOURNE PARK ROAD,51.51799,-0.1911462,525604,181446
02/09/2013,WESTBOURNE PARK VILLAS,51.518692,-0.1889706,525753,181528
03/08/2012,GILLINGHAM STREET,51.49421,-0.1408741,529159,178889
03/08/2012,GREAT WINDMILL STREET,51.510685,-0.1339126,529596,180733
03/08/2012,LEICESTER STREET,51.511208,-0.1313763,529770,180796
03/08/2012,MARYLEBONE ROAD,51.52324,-0.1504129,528415,182100
03/08/2012,YORK STREET,51.52072,-0.1580285,527894,181807
11/07/2013,BUCKINGHAM PALACE ROAD,51.492702,-0.147683,528691,178709
11/07/2013,GROSVENOR GARDENS,51.495914,-0.1454804,528835,179070
11/07/2013,ST GEORGE'S SQUARE,51.485893,-0.1335929,529688,177977
15/04/2013,BUCKINGHAM PALACE ROAD,51.492702,-0.147683,528691,178709
15/04/2013,COVENTRY STREET,51.5104,-0.131467,529766,180706
15/04/2013,EATON LANE,51.497013,-0.1446505,528889,179194
15/04/2013,LEAMINGTON ROAD VILLAS,51.519913,-0.2021401,524836,181641
15/04/2013,LEDBURY ROAD,51.517757,-0.2005963,524949,181404
15/04/2013,MARYLEBONE ROAD,51.52324,-0.1504129,528415,182100
15/04/2013,Not Recorded,0.0,0.0,0,0
15/04/2013,STRAND,51.51249,-0.1159893,530834,180966
15/04/2013,VICTORIA STREET,51.49657,-0.1428958,529012,179148
15/04/2013,WARWICK CRESCENT,51.521046,-0.1839907,526092,181798
15/04/2013,WESTBOURNE PARK ROAD,51.51799,-0.1911462,525604,181446
17/03/2013,STAR STREET,51.51712,-0.1710163,527003,181384
08/02/2013,INGESTRE PLACE,51.51353,-0.1359509,529446,181046
08/02/2013,LANCASTER PLACE,51.511307,-0.1190358,530626,180829
08/02/2013,OXFORD STREET,51.51545,-0.1406854,529112,181251
08/02/2013,RAMILLIES STREET,51.51447,-0.1385788,529261,181146
08/02/2013,SEYMOUR STREET,51.514755,-0.1582982,527892,181143
08/02/2013,ST ANNE'S COURT,51.514217,-0.1345536,529541,181125
08/02/2013,ST GEORGE'S SQUARE,51.485893,-0.1335929,529688,177977
08/02/2013,TREVOR WALK,51.500797,-0.1645669,527496,179580
29/05/2012,BELGRAVE ROAD,51.49032,-0.138078,529364,178461
29/05/2012,ECCLESTON SQUARE,51.492588,-0.1428849,529024,178705
29/05/2012,GROSVENOR GARDENS,51.495914,-0.1454804,528835,179070
29/05/2012,Not Recorded,0.0,0.0,0,0
29/05/2012,PORCHESTER ROAD,51.517197,-0.1881652,525813,181363
29/05/2012,WARWICK WAY,51.490376,-0.1462504,528797,178453
03/04/2012,GREEK STREET,51.51426,-0.1310207,529786,181136
03/04/2012,Not Recorded,0.0,0.0,0,0
21/04/2012,Not Recorded,0.0,0.0,0,0
20/06/2013,ARTILLERY ROW,51.49695,-0.1356048,529517,179203
20/06/2013,BUCKINGHAM PALACE ROAD,51.492702,-0.147683,528691,178709
20/06/2013,DOUGLAS STREET,51.49138,-0.1336281,529670,178587
20/06/2013,ELIZABETH STREET,51.493107,-0.149751,528546,178750
20/06/2013,SEMLEY PLACE,51.49184,-0.149657,528556,178610
20/06/2013,VICTORIA STREET,51.49657,-0.1428958,529012,179148
25/01/2013,ABINGDON STREET,51.49698,-0.1256626,530207,179224
25/01/2013,BAYSWATER ROAD,51.512917,-0.1632581,527553,180930
25/01/2013,BUCKINGHAM GATE,51.500042,-0.1407178,529153,179537
25/01/2013,WILCOX PLACE,51.49671,-0.1370696,529416,179174
30/08/2013,BUCKINGHAM PALACE ROAD,51.492702,-0.147683,528691,178709
30/08/2013,OXFORD STREET,51.51545,-0.1406854,529112,181251
30/08/2013,PORCHESTER ROAD,51.517197,-0.1881652,525813,181363
30/08/2013,TACHBROOK STREET,51.49196,-0.1384015,529337,178643
30/08/2013,TERMINUS PLACE,51.49606,-0.1447318,528886,179088
30/08/2013,WESTBOURNE GROVE,51.515175,-0.1939386,525418,181128
26/06/2012,BAYSWATER ROAD,51.512917,-0.1632581,527553,180930
26/06/2012,BUCKINGHAM PALACE ROAD,51.492702,-0.147683,528691,178709
26/06/2012,ECCLESTON BRIDGE,51.494102,-0.1466265,528760,178867
26/06/2012,GILLINGHAM STREET,51.49421,-0.1408741,529159,178889
26/06/2012,Not Recorded,0.0,0.0,0,0
26/06/2012,ORME SQUARE,51.51024,-0.1897869,525720,180586
26/06/2012,PICCADILLY,51.50311,-0.1497623,528517,179863
26/06/2012,PORCHESTER GARDENS,51.513706,-0.1891541,525754,180973
26/06/2012,REGENT STREET,51.516247,-0.1423526,528994,181336
26/06/2012,WILTON STREET,51.498287,-0.1495688,528544,179327
01/12/2012,BELGRAVE ROAD,51.49032,-0.138078,529364,178461
01/12/2012,BRIDGE PLACE,51.49338,-0.1446252,528901,178790
01/12/2012,BUCKINGHAM PALACE ROAD,51.494102,-0.1466265,528760,178867
01/12/2012,GROSVENOR GARDENS,51.495914,-0.1454804,528835,179070
22/03/2013,COVENTRY STREET,51.510105,-0.1334536,529629,180669
22/03/2013,LOWER BELGRAVE STREET,51.496597,-0.1480092,528657,179142
22/03/2013,PARK LANE,51.506317,-0.1523064,528332,180215
22/03/2013,PICCADILLY,51.50311,-0.1497623,528517,179863
22/03/2013,STRAND,51.51249,-0.1159893,530834,180966
22/03/2013,WHITCOMB STREET,51.50816,-0.1297861,529889,180460
04/05/2012,Not Recorded,51.51418,-0.1180239,530688,181150
04/05/2012,PORTMAN SQUARE,51.515068,-0.1565416,528013,181181
27/06/2012,ALLINGTON STREET,51.497196,-0.1445117,528898,179214
27/06/2012,LORD HILL'S BRIDGE,51.518692,-0.1889706,525753,181528
27/06/2012,NORTH WHARF ROAD,51.518764,-0.1757685,526669,181558
27/06/2012,Not Recorded,0.0,0.0,0,0
27/06/2012,ORANGE STREET,51.509495,-0.1299477,529874,180608
27/06/2012,PARK LANE,51.506317,-0.1523064,528332,180215
27/06/2012,TACHBROOK STREET,51.49196,-0.1384015,529337,178643
27/06/2012,TERMINUS PLACE,51.49606,-0.1447318,528886,179088
27/06/2012,VAUXHALL BRIDGE ROAD,51.490948,-0.1342075,529631,178538
04/09/2013,ASHLEY PLACE,51.496082,-0.141601,529103,179096
04/09/2013,BAKER STREET,51.51945,-0.156278,528019,181669
04/09/2013,BRIDSTOW PLACE,51.515587,-0.1952263,525328,181171
04/09/2013,DUNRAVEN STREET,51.5116,-0.1568401,528002,180795
04/09/2013,ECCLESTON SQUARE,51.492588,-0.1428849,529024,178705
04/09/2013,KNIGHTSBRIDGE,51.502438,-0.1562014,528072,179777
04/09/2013,LUPUS STREET,51.48819,-0.1381329,529366,178224
04/09/2013,MARYLEBONE ROAD,51.52324,-0.1504129,528415,182100
04/09/2013,MORPETH TERRACE,51.49623,-0.1402299,529198,179115
04/09/2013,TERMINUS PLACE,51.49606,-0.1447318,528886,179088
04/09/2013,VAUXHALL BRIDGE ROAD,51.490948,-0.1342075,529631,178538
04/09/2013,VICTORIA STREET,51.49657,-0.1428958,529012,179148
04/09/2013,WARWICK WAY,51.490376,-0.1462504,528797,178453
04/09/2013,WILTON ROAD,51.49502,-0.1426527,529033,178976
17/05/2012,BUCKINGHAM PALACE ROAD,51.492702,-0.147683,528691,178709
17/05/2012,EATON PLACE,51.49749,-0.1520556,528374,179234
17/05/2012,GREAT PORTLAND STREET,51.519096,-0.1422818,528991,181654
17/05/2012,GROSVENOR GARDENS,51.495914,-0.1454804,528835,179070
17/05/2012,JAMES STREET,51.51231,-0.1231308,530339,180933
17/05/2012,Not Recorded,0.0,0.0,0,0
17/05/2012,REGENT STREET,51.516247,-0.1423526,528994,181336
17/05/2012,VAUXHALL BRIDGE ROAD,51.490948,-0.1342075,529631,178538
25/08/2013,BELGRAVE ROAD,51.49032,-0.138078,529364,178461
25/08/2013,ECCLESTON SQUARE,51.492588,-0.1428849,529024,178705
25/08/2013,VAUXHALL BRIDGE ROAD,51.490948,-0.1342075,529631,178538
25/08/2013,VICTORIA STREET,51.49657,-0.1428958,529012,179148
25/08/2013,WARWICK WAY,51.490376,-0.1462504,528797,178453
16/08/2013,BUCKINGHAM PALACE ROAD,51.492702,-0.147683,528691,178709
16/08/2013,GILLINGHAM STREET,51.49421,-0.1408741,529159,178889
16/08/2013,HYDE PARK GARDENS,51.512836,-0.1725139,526911,180905
16/08/2013,LONGMOORE STREET,51.492905,-0.1396595,529247,178746
16/08/2013,OXFORD STREET,51.51545,-0.1406854,529112,181251
16/08/2013,PICCADILLY CIRCUS,51.510098,-0.134549,529553,180667
16/08/2013,SUSSEX GARDENS,51.51472,-0.1735193,526836,181113
16/08/2013,VICTORIA STREET,51.49657,-0.1428958,529012,179148
16/08/2013,WESTBOURNE GROVE,51.515175,-0.1939386,525418,181128
16/08/2013,WESTBOURNE TERRACE,51.51552,-0.1791649,526442,181191
13/08/2013,CATO STREET,51.51758,-0.1644888,527455,181446
13/08/2013,ELGIN AVENUE,51.52462,-0.2001094,524964,182168
13/08/2013,QUEENSWAY,51.515408,-0.1882362,525813,181164
13/08/2013,ROYALTY MEWS,51.5141,-0.1328144,529662,181115
13/08/2013,VAUXHALL BRIDGE ROAD,51.490948,-0.1342075,529631,178538
13/08/2013,WILTON ROAD,51.49502,-0.1426527,529033,178976
29/06/2013,ALDERNEY STREET,51.489693,-0.1440829,528949,178381
29/06/2013,CAMBRIDGE STREET,51.488537,-0.1403703,529210,178259
29/06/2013,EBURY BRIDGE,51.49077,-0.1496572,528559,178491
29/06/2013,WARWICK WAY,51.490376,-0.1462504,528797,178453
14/06/2013,ALMA SQUARE,51.530937,-0.18005,526338,182905
14/06/2013,D'ARBLAY STREET,51.514492,-0.1364593,529408,181152
14/06/2013,FOUBERT'S PLACE,51.513832,-0.1389227,529239,181074
14/06/2013,GLASSHOUSE STREET,51.510372,-0.1352728,529502,180696
14/06/2013,GREEK STREET,51.51426,-0.1310207,529786,181136
14/06/2013,KINGLY STREET,51.512794,-0.139483,529203,180958
14/06/2013,MARSHALL STREET,51.513046,-0.1376969,529326,180989
14/06/2013,QUEENSWAY,51.515408,-0.1882362,525813,181164
14/06/2013,SEYMOUR PLACE,51.52054,-0.1638199,527493,181776
14/06/2013,ST MARTIN'S STREET,51.509495,-0.1299477,529874,180608
14/06/2013,UPPER BERKELEY STREET,51.515984,-0.1570235,527977,181282
14/06/2013,WHITCOMB STREET,51.50816,-0.1297861,529889,180460
27/01/2013,BISHOP'S BRIDGE ROAD,51.516167,-0.1871855,525884,181250
27/01/2013,COVENTRY STREET,51.510105,-0.1334536,529629,180669
27/01/2013,RUPERT STREET,51.511482,-0.1330534,529653,180823
07/04/2013,HANWAY STREET,51.509796,-0.1279754,530010,180645
21/09/2013,BELGRAVE ROAD,51.49032,-0.138078,529364,178461
21/09/2013,BUCKINGHAM PALACE ROAD,51.492702,-0.147683,528691,178709
21/09/2013,CRANBOURN STREET,51.511795,-0.1271151,530064,180869
21/09/2013,ECCLESTON SQUARE,51.492588,-0.1428849,529024,178705
21/09/2013,ECCLESTON STREET,51.49477,-0.1485436,528625,178937
21/09/2013,FRANCIS STREET,51.496666,-0.1370714,529416,179169
21/09/2013,GILLINGHAM STREET,51.49421,-0.1408741,529159,178889
21/09/2013,HUGH STREET,51.49281,-0.1449647,528879,178726
21/09/2013,VAUXHALL BRIDGE ROAD,51.490948,-0.1342075,529631,178538
11/06/2012,BAYSWATER ROAD,51.512917,-0.1632581,527553,180930
11/06/2012,GOLDEN SQUARE,51.511723,-0.1377828,529324,180842
11/06/2012,LOWER JAMES STREET,51.511192,-0.1361615,529438,180786
11/06/2012,Not Recorded,0.0,0.0,0,0
11/06/2012,QUEEN'S GARDENS,51.513306,-0.1836069,526140,180938
15/09/2013,COVENTRY STREET,51.510105,-0.1334536,529629,180669
15/09/2013,EDGWARE ROAD,51.517857,-0.1671549,527269,181472
15/09/2013,GREAT WINDMILL STREET,51.510685,-0.1339126,529596,180733
07/07/2012,BRIDGE PLACE,51.49338,-0.1446252,528901,178790
07/07/2012,CARLISLE PLACE,51.495937,-0.1414665,529113,179080
07/07/2012,ECCLESTON SQUARE MEWS,51.49202,-0.1427207,529037,178642
07/07/2012,JERMYN STREET,51.507893,-0.1383138,529298,180415
07/07/2012,Not Recorded,0.0,0.0,0,0
07/07/2012,OXENDON STREET,51.510296,-0.1322928,529709,180693
07/07/2012,PALL MALL,51.50619,-0.135376,529507,180231
07/07/2012,ST MARTIN'S STREET,51.509495,-0.1299477,529874,180608
07/07/2012,VICTORIA STREET,51.49657,-0.1428958,529012,179148
28/08/2012,ARTESIAN ROAD,51.51562,-0.1961116,525266,181174
28/08/2012,BAYSWATER ROAD,51.512917,-0.1632581,527553,180930
28/08/2012,CHEPSTOW ROAD,51.51568,-0.195259,525325,181182
28/08/2012,ECCLESTON BRIDGE,51.494102,-0.1466265,528760,178867
28/08/2012,LEINSTER SQUARE,51.513634,-0.1914341,525596,180961
28/08/2012,Not Recorded,51.512466,-0.1331262,529645,180933
28/08/2012,TALBOT ROAD,51.51696,-0.1990566,525058,181318
28/08/2012,TERMINUS PLACE,51.49606,-0.1447318,528886,179088
28/08/2012,VAUXHALL BRIDGE ROAD,51.490948,-0.1342075,529631,178538
28/08/2012,VICTORIA STREET,51.49657,-0.1428958,529012,179148
28/08/2012,WESTBOURNE GROVE,51.515175,-0.1939386,525418,181128
28/08/2012,WESTBOURNE PARK ROAD,51.51799,-0.1911462,525604,181446
26/05/2012,BOTTS MEWS,51.515446,-0.1951818,525331,181156
26/05/2012,Not Recorded,0.0,0.0,0,0
26/05/2012,QUEEN'S MEWS,51.513115,-0.1901732,525685,180905
09/11/2012,BUCKINGHAM PALACE ROAD,51.492702,-0.147683,528691,178709
09/11/2012,CHAPEL STREET,51.500286,-0.1503378,528485,179548
09/11/2012,GREAT GEORGE STREET,51.501152,-0.1278831,530041,179684
09/11/2012,Not Recorded,0.0,0.0,0,0
16/04/2013,BELGRAVE ROAD,51.49032,-0.138078,529364,178461
16/04/2013,BERWICK STREET,51.513866,-0.1351638,529500,181085
16/04/2013,BUCKINGHAM PALACE ROAD,51.492702,-0.147683,528691,178709
16/04/2013,PRAED STREET,51.515957,-0.1749476,526734,181248
16/04/2013,SUSSEX SQUARE,51.513508,-0.1734238,526846,180978
16/04/2013,TERMINUS PLACE,51.49606,-0.1447318,528886,179088
16/04/2013,VICTORIA STREET,51.49657,-0.1428958,529012,179148
16/04/2013,WARWICK WAY,51.490376,-0.1462504,528797,178453
25/05/2013,LEICESTER SQUARE,51.510597,-0.1308323,529810,180729
09/07/2013,BAKER STREET,51.51945,-0.156278,528019,181669
09/07/2013,DOUGLAS STREET,51.49138,-0.1336281,529670,178587
09/07/2013,HARROW ROAD,51.52653,-0.2079486,524415,182367
09/07/2013,ORANGE STREET,51.509495,-0.1299477,529874,180608
09/07/2013,ROSSMORE ROAD,51.52404,-0.1673655,527237,182160
09/07/2013,SACKVILLE STREET,51.51027,-0.1389807,529245,180678
09/07/2013,SAVOY STREET,51.50979,-0.1186084,530660,180661
09/07/2013,VICTORIA STREET,51.49657,-0.1428958,529012,179148
30/10/2012,ALLITSEN ROAD,51.534332,-0.168192,527151,183303
30/10/2012,BALCOMBE STREET,51.524136,-0.1623596,527584,182179
30/10/2012,CRANBOURN ALLEY,51.51092,-0.1287074,529956,180769
30/10/2012,CRAWFORD STREET,51.51967,-0.1602764,527741,181686
30/10/2012,LEICESTER SQUARE,51.510597,-0.1308323,529810,180729
30/10/2012,LEICESTER STREET,51.511208,-0.1313763,529770,180796
30/10/2012,Not Recorded,51.523083,-0.151139,528365,182081
26/04/2013,BELGRAVE ROAD,51.49032,-0.138078,529364,178461
26/04/2013,ECCLESTON SQUARE,51.492588,-0.1428849,529024,178705
26/04/2013,ELIZABETH BRIDGE,51.49252,-0.1477711,528685,178689
26/04/2013,UPPER TACHBROOK STREET,51.49351,-0.139593,529250,178813
26/04/2013,VICTORIA STREET,51.49657,-0.1428958,529012,179148
26/04/2013,WESTBOURNE PARK ROAD,51.51799,-0.1911462,525604,181446
26/04/2013,WESTBOURNE TERRACE,51.51552,-0.1791649,526442,181191
10/08/2013,BROADWICK STREET,51.513233,-0.1370583,529370,181011
10/08/2013,GREAT WINDMILL STREET,51.510685,-0.1339126,529596,180733
18/05/2012,KILRAVOCK STREET,51.52958,-0.211462,524163,182700
18/05/2012,Not Recorded,0.0,0.0,0,0
18/05/2012,SIXTH AVENUE,51.529263,-0.2131756,524045,182662
08/07/2013,CHARING CROSS,51.50735,-0.1280092,530015,180373
08/07/2013,HATHERLEY GROVE,51.516697,-0.190102,525680,181304
08/07/2013,LEICESTER PLACE,51.511536,-0.1304694,529832,180834
08/07/2013,LISLE STREET,51.511753,-0.1293796,529907,180860
08/07/2013,WESTBOURNE PARK ROAD,51.51799,-0.1911462,525604,181446
31/05/2012,BRESSENDEN PLACE,51.497925,-0.1431145,528993,179298
31/05/2012,GROSVENOR ROAD,51.485706,-0.1456131,528854,177935
31/05/2012,HANWAY STREET,51.509796,-0.1279754,530010,180645
31/05/2012,MILLBANK,51.49464,-0.1250815,530254,178965
31/05/2012,Not Recorded,0.0,0.0,0,0
15/06/2013,BAKER STREET,51.51945,-0.156278,528019,181669
15/06/2013,BUCKINGHAM GATE,51.500042,-0.1407178,529153,179537
15/06/2013,GOLDEN SQUARE,51.511723,-0.1377828,529324,180842
15/06/2013,NORFOLK CRESCENT,51.515682,-0.1664329,527325,181232
15/06/2013,TERMINUS PLACE,51.49606,-0.1447318,528886,179088
15/06/2013,VAUXHALL BRIDGE ROAD,51.490948,-0.1342075,529631,178538
15/06/2013,VICTORIA STREET,51.49657,-0.1428958,529012,179148
30/03/2013,BAYSWATER ROAD,51.512917,-0.1632581,527553,180930
30/03/2013,HARROW ROAD,51.52653,-0.2079486,524415,182367
30/03/2013,PICCADILLY,51.50311,-0.1497623,528517,179863
13/06/2012,Not Recorded,0.0,0.0,0,0
13/06/2012,POLAND STREET,51.51576,-0.1376902,529319,181291
13/06/2012,SHAFTESBURY AVENUE,51.515465,-0.1268317,530073,181277
29/07/2012,HANWAY STREET,51.509796,-0.1279754,530010,180645
29/07/2012,ST ANNE'S COURT,51.514217,-0.1345536,529541,181125
30/05/2013,BUCKINGHAM PALACE ROAD,51.492702,-0.147683,528691,178709
30/05/2013,JAMES STREET,51.51502,-0.1506069,528425,181186
30/05/2013,NEATHOUSE PLACE,51.49457,-0.1421307,529071,178927
30/05/2013,VAUXHALL BRIDGE ROAD,51.490948,-0.1342075,529631,178538
30/05/2013,WARWICK SQUARE,51.49019,-0.1424638,529060,178439
12/01/2013,MOSCOW ROAD,51.511696,-0.194033,525421,180741
12/06/2013,GLOUCESTER TERRACE,51.51769,-0.1886357,525779,181417
12/06/2013,GROSVENOR GARDENS,51.495914,-0.1454804,528835,179070
12/06/2013,GROSVENOR PLACE,51.500652,-0.1497466,528525,179590
12/06/2013,LANCASTER GATE,51.511135,-0.1829438,526192,180698
12/06/2013,LOWER GROSVENOR PLACE,51.498215,-0.1467334,528741,179324
12/06/2013,NEWMAN STREET,51.518894,-0.1369568,529361,181641
12/06/2013,PALACE STREET,51.496956,-0.139264,529263,179197
12/06/2013,PORCHESTER ROAD,51.517197,-0.1881652,525813,181363
12/06/2013,TACHBROOK STREET,51.49196,-0.1384015,529337,178643
08/04/2012,MONTAGU MEWS NORTH,51.51979,-0.1595795,527789,181701
08/04/2012,Not Recorded,0.0,0.0,0,0
06/09/2012,ALLINGTON STREET,51.497196,-0.1445117,528898,179214
06/09/2012,BROADWICK STREET,51.513233,-0.1370583,529370,181011
06/09/2012,BUCKINGHAM PALACE ROAD,51.492702,-0.147683,528691,178709
06/09/2012,EBURY BRIDGE,51.49077,-0.1496572,528559,178491
06/09/2012,ELIZABETH STREET,51.493107,-0.149751,528546,178750
06/09/2012,GLOUCESTER STREET,51.490734,-0.1395173,529263,178505
06/09/2012,LEICESTER SQUARE,51.510597,-0.1308323,529810,180729
06/09/2012,QUEENSWAY,51.515408,-0.1882362,525813,181164
06/09/2012,STRAND,51.51249,-0.1159893,530834,180966
06/09/2012,VICTORIA STREET,51.49657,-0.1428958,529012,179148
06/09/2012,WILTON ROAD,51.49502,-0.1426527,529033,178976
27/12/2012,ALDERNEY STREET,51.489693,-0.1440829,528949,178381
27/12/2012,WARDOUR STREET,51.51233,-0.1329589,529657,180918
18/05/2013,BAKER STREET,51.51945,-0.156278,528019,181669
18/05/2013,BUCKINGHAM PALACE ROAD,51.492702,-0.147683,528691,178709
18/05/2013,CARLISLE PLACE,51.495937,-0.1414665,529113,179080
18/05/2013,PORCHESTER TERRACE NORTH,51.516846,-0.1861623,525953,181327
18/05/2013,TERMINUS PLACE,51.49606,-0.1447318,528886,179088
18/05/2013,UPPER TACHBROOK STREET,51.49351,-0.139593,529250,178813
18/05/2013,VAUXHALL BRIDGE ROAD,51.490948,-0.1342075,529631,178538
18/05/2013,VICTORIA STREET,51.49657,-0.1428958,529012,179148
18/05/2013,WARWICK WAY,51.490376,-0.1462504,528797,178453
05/06/2012,BISHOP'S BRIDGE ROAD,51.516167,-0.1871855,525884,181250
18/07/2013,BEAR STREET,51.5109,-0.1284057,529977,180767
18/07/2013,BROADWICK STREET,51.513233,-0.1370583,529370,181011
18/07/2013,BUCKINGHAM GATE,51.500042,-0.1407178,529153,179537
18/07/2013,HANWAY STREET,51.509796,-0.1279754,530010,180645
18/07/2013,HOBART PLACE,51.497486,-0.1491082,528578,179238
18/07/2013,INVERNESS TERRACE,51.512222,-0.1863594,525952,180813
18/07/2013,LEICESTER SQUARE,51.510597,-0.1308323,529810,180729
18/07/2013,REGENT STREET,51.516247,-0.1423526,528994,181336
18/07/2013,SHAFTESBURY AVENUE,51.511116,-0.1335539,529619,180782
18/07/2013,TERMINUS PLACE,51.49606,-0.1447318,528886,179088
18/07/2013,VICTORIA STREET,51.49657,-0.1428958,529012,179148
18/07/2013,WARDOUR STREET,51.51233,-0.1329589,529657,180918
18/07/2013,WIGMORE STREET,51.5158,-0.1521593,528315,181270
12/04/2013,ABINGDON STREET,51.49698,-0.1256626,530207,179224
12/04/2013,ALDWYCH,51.51207,-0.1189976,530627,180913
12/04/2013,ARUNDEL STREET,51.51192,-0.1140241,530972,180906
12/04/2013,BAYSWATER ROAD,51.512917,-0.1632581,527553,180930
12/04/2013,FLEET STREET,51.51376,-0.1115412,531139,181115
12/04/2013,GREAT GEORGE STREET,51.501152,-0.1278831,530041,179684
12/04/2013,GROSVENOR PLACE,51.500652,-0.1497466,528525,179590
12/04/2013,LISSON GROVE,51.526028,-0.171018,526978,182374
12/04/2013,Not Recorded,0.0,0.0,0,0
12/04/2013,PARLIAMENT SQUARE,51.5002,-0.1262508,530157,179581
12/04/2013,ST MARGARET STREET,51.499752,-0.1261763,530164,179531
12/04/2013,STRAND,51.51249,-0.1159893,530834,180966
12/04/2013,VAUXHALL BRIDGE ROAD,51.490948,-0.1342075,529631,178538
12/04/2013,VICTORIA STREET,51.49657,-0.1428958,529012,179148
12/04/2013,WEYMOUTH STREET,51.52014,-0.1502682,528434,181756
12/04/2013,WHITEHALL,51.505646,-0.1266961,530111,180185
28/11/2012,CHILWORTH MEWS,51.516,-0.178587,526481,181246
22/06/2012,BELGRAVE ROAD,51.49032,-0.138078,529364,178461
22/06/2012,Not Recorded,0.0,0.0,0,0
25/04/2013,BAKER STREET,51.51945,-0.156278,528019,181669
25/04/2013,BUCKINGHAM GATE,51.500042,-0.1407178,529153,179537
25/04/2013,BUCKINGHAM PALACE ROAD,51.492702,-0.147683,528691,178709
25/04/2013,ECCLESTON BRIDGE,51.494102,-0.1466265,528760,178867
25/04/2013,UPPER TACHBROOK STREET,51.49351,-0.139593,529250,178813
25/04/2013,VAUXHALL BRIDGE ROAD,51.490948,-0.1342075,529631,178538
25/04/2013,VICTORIA STREET,51.49657,-0.1428958,529012,179148
25/04/2013,WILTON ROAD,51.49502,-0.1426527,529033,178976
14/12/2012,MARYLEBONE ROAD,51.52324,-0.1504129,528415,182100
19/04/2013,CHILWORTH STREET,51.515045,-0.1803088,526364,181137
19/04/2013,CONNAUGHT STREET,51.51466,-0.1649894,527428,181121
19/04/2013,VICTORIA STREET,51.49657,-0.1428958,529012,179148
19/04/2013,WINCHESTER STREET,51.488346,-0.1424667,529065,178234
31/07/2013,BUCKINGHAM PALACE ROAD,51.492702,-0.147683,528691,178709
31/07/2013,EBURY SQUARE,51.49184,-0.149657,528556,178610
31/07/2013,OXFORD STREET,51.51545,-0.1406854,529112,181251
31/07/2013,PICCADILLY CIRCUS,51.510098,-0.134549,529553,180667
31/07/2013,PIMLICO ROAD,51.49067,-0.1522254,528381,178475
31/07/2013,RANDOLPH AVENUE,51.527542,-0.1831121,526135,182522
31/07/2013,SALE PLACE,51.51736,-0.1688004,527156,181414
10/09/2012,ADELAIDE STREET,51.509144,-0.1258982,530156,180576
10/09/2012,BELGRAVE ROAD,51.49032,-0.138078,529364,178461
10/09/2012,BUCKINGHAM PALACE ROAD,51.492702,-0.147683,528691,178709
10/09/2012,ECCLESTON SQUARE,51.492588,-0.1428849,529024,178705
10/09/2012,GREAT WESTERN ROAD,51.520588,-0.2003406,524959,181719
10/09/2012,HARROW ROAD,51.52653,-0.2079486,524415,182367
10/09/2012,HORMEAD ROAD,51.523323,-0.2017606,524853,182021
10/09/2012,INGESTRE PLACE,51.51353,-0.1359509,529446,181046
10/09/2012,SHREWSBURY MEWS,51.51851,-0.1973812,525170,181493
10/09/2012,VAUXHALL BRIDGE ROAD,51.490948,-0.1342075,529631,178538
10/09/2012,WESTBOURNE PARK ROAD,51.51799,-0.1911462,525604,181446
10/09/2012,WILTON ROAD,51.49502,-0.1426527,529033,178976
09/08/2013,BUCKINGHAM PALACE ROAD,51.492702,-0.147683,528691,178709
09/08/2013,COVENTRY STREET,51.510105,-0.1334536,529629,180669
09/08/2013,ELGIN AVENUE,51.52462,-0.2001094,524964,182168
09/08/2013,GREAT WINDMILL STREET,51.510685,-0.1339126,529596,180733
09/08/2013,Not Recorded,0.0,0.0,0,0
09/08/2013,PICCADILLY,51.50311,-0.1497623,528517,179863
09/08/2013,TERMINUS PLACE,51.49606,-0.1447318,528886,179088
09/08/2013,VICTORIA STREET,51.49657,-0.1428958,529012,179148
21/07/2013,LANCASTER GATE,51.511135,-0.1829438,526192,180698
21/07/2013,PICCADILLY,51.50311,-0.1497623,528517,179863
21/07/2013,WARDOUR STREET,51.51233,-0.1329589,529657,180918
20/04/2013,PANTON STREET,51.509808,-0.1310284,529798,180641
16/04/2012,GOLDNEY ROAD,51.52497,-0.1974726,525146,182211
16/04/2012,KILBURN PARK ROAD,51.52943,-0.19513,525296,182711
16/04/2012,Not Recorded,0.0,0.0,0,0
16/04/2012,RANDOLPH AVENUE,51.527542,-0.1831121,526135,182522
16/04/2012,RANDOLPH CRESCENT,51.524307,-0.1821021,526214,182164
16/04/2012,SHEPHERD MARKET,51.50635,-0.1477288,528649,180227
16/04/2012,WESTBOURNE GROVE,51.513557,-0.2030101,524793,180933
03/01/2013,BUCKINGHAM PALACE ROAD,51.492702,-0.147683,528691,178709
03/01/2013,CARLISLE PLACE,51.495937,-0.1414665,529113,179080
03/01/2013,EDGWARE ROAD,51.517857,-0.1671549,527269,181472
03/01/2013,GREAT TITCHFIELD STREET,51.52035,-0.1413947,529049,181795
03/01/2013,Not Recorded,0.0,0.0,0,0
03/01/2013,TERMINUS PLACE,51.49606,-0.1447318,528886,179088
03/01/2013,VICTORIA STREET,51.49657,-0.1428958,529012,179148
03/01/2013,WARWICK SQUARE,51.49019,-0.1424638,529060,178439
14/02/2013,BELGRAVE ROAD,51.49032,-0.138078,529364,178461
14/02/2013,BUCKINGHAM PALACE ROAD,51.492702,-0.147683,528691,178709
14/02/2013,GEORGE STREET,51.517452,-0.1553787,528087,181448
14/02/2013,GROSVENOR GARDENS,51.495914,-0.1454804,528835,179070
14/02/2013,HANOVER SQUARE,51.51359,-0.1434298,528927,181039
14/02/2013,HANWAY STREET,51.509796,-0.1279754,530010,180645
14/02/2013,MARGARET STREET,51.51691,-0.139863,529165,181415
14/02/2013,RAMILLIES STREET,51.51447,-0.1385788,529261,181146
14/02/2013,SHERLOCK MEWS,51.520393,-0.1560814,528030,181774
14/02/2013,SOHO SQUARE,51.515438,-0.1316931,529736,181266
14/02/2013,VICTORIA STREET,51.49657,-0.1428958,529012,179148
14/02/2013,WARWICK WAY,51.490376,-0.1462504,528797,178453
14/02/2013,WILTON ROAD,51.49502,-0.1426527,529033,178976
27/06/2013,BAKER STREET,51.51945,-0.156278,528019,181669
27/06/2013,BATEMAN STREET,51.513737,-0.1325699,529680,181075
27/06/2013,CHURTON STREET,51.491356,-0.1390022,529297,178575
27/06/2013,DUKE STREET,51.51647,-0.1525069,528289,181344
27/06/2013,ECCLESTON BRIDGE,51.494102,-0.1466265,528760,178867
27/06/2013,INVERNESS PLACE,51.512222,-0.1863594,525952,180813
27/06/2013,INVERNESS TERRACE,51.512222,-0.1863594,525952,180813
27/06/2013,QUEENSWAY,51.515408,-0.1882362,525813,181164
27/06/2013,TERMINUS PLACE,51.49606,-0.1447318,528886,179088
22/08/2012,GREAT WESTERN ROAD,51.520588,-0.2003406,524959,181719
22/08/2012,PORCHESTER ROAD,51.517197,-0.1881652,525813,181363
22/08/2012,TALBOT ROAD,51.51696,-0.1990566,525058,181318
22/08/2012,TERMINUS PLACE,51.49606,-0.1447318,528886,179088
22/08/2012,VICTORIA STREET,51.49657,-0.1428958,529012,179148
05/07/2013,CHILTERN STREET,51.51964,-0.1552036,528093,181692
05/07/2013,EDGWARE ROAD,51.517857,-0.1671549,527269,181472
05/07/2013,HYDE PARK CORNER,51.503048,-0.1521999,528348,179852
05/07/2013,LISLE STREET,51.511753,-0.1293796,529907,180860
05/07/2013,PADDINGTON STREET,51.520657,-0.1539374,528178,181807
15/10/2012,ALDERNEY STREET,51.489693,-0.1440829,528949,178381
15/10/2012,BUCKINGHAM PALACE ROAD,51.492702,-0.147683,528691,178709
15/10/2012,LEICESTER SQUARE,51.510597,-0.1308323,529810,180729
15/10/2012,LORD HILL'S BRIDGE,51.518692,-0.1889706,525753,181528
15/10/2012,PORCHESTER ROAD,51.519455,-0.188753,525766,181613
15/10/2012,SUSSEX STREET,51.48782,-0.1450952,528884,178171
15/10/2012,WARDOUR STREET,51.51233,-0.1329589,529657,180918
05/04/2012,Not Recorded,0.0,0.0,0,0
05/04/2012,ORSETT TERRACE,51.517742,-0.1842952,526080,181430
05/04/2012,WESTBOURNE GROVE,51.513557,-0.2030101,524793,180933
11/09/2013,BUCKINGHAM PALACE ROAD,51.492702,-0.147683,528691,178709
11/09/2013,FRANCIS STREET,51.496666,-0.1370714,529416,179169
11/09/2013,GREAT WINDMILL STREET,51.510685,-0.1339126,529596,180733
11/09/2013,NEW BOND STREET,51.51116,-0.1432821,528944,180770
11/09/2013,ORANGE STREET,51.509495,-0.1299477,529874,180608
11/09/2013,VICTORIA STREET,51.49657,-0.1428958,529012,179148
11/09/2013,WHITCOMB STREET,51.50816,-0.1297861,529889,180460
11/09/2013,WILTON ROAD,51.49502,-0.1426527,529033,178976
23/09/2012,GLOUCESTER TERRACE,51.51769,-0.1886357,525779,181417
23/09/2012,LEICESTER SQUARE,51.510597,-0.1308323,529810,180729
11/05/2012,BUCKINGHAM GATE,51.500042,-0.1407178,529153,179537
11/05/2012,BUCKINGHAM PALACE ROAD,51.492702,-0.147683,528691,178709
11/05/2012,Not Recorded,0.0,0.0,0,0
11/05/2012,QUEENSWAY,51.515408,-0.1882362,525813,181164
11/05/2012,VICTORIA STREET SERVICE ROAD,51.497005,-0.1418697,529082,179198
02/07/2012,KILDARE TERRACE,51.51786,-0.1938034,525420,181427
02/07/2012,WHITCOMB STREET,51.50816,-0.1297861,529889,180460
07/08/2013,BUCKINGHAM PALACE ROAD,51.492702,-0.147683,528691,178709
07/08/2013,CRANBOURN ALLEY,51.51092,-0.1287074,529956,180769
07/08/2013,ECCLESTON PLACE,51.49433,-0.1473808,528707,178891
07/08/2013,ELIZABETH STREET,51.493107,-0.149751,528546,178750
07/08/2013,GREAT WESTERN ROAD,51.520588,-0.2003406,524959,181719
07/08/2013,LEICESTER SQUARE,51.510597,-0.1308323,529810,180729
07/08/2013,PICCADILLY CIRCUS,51.510098,-0.134549,529553,180667
07/08/2013,PORTMAN STREET,51.514244,-0.1561857,528040,181090
07/08/2013,VAUXHALL BRIDGE,51.488647,-0.129375,529973,178291
01/04/2013,CHEPSTOW ROAD,51.51568,-0.195259,525325,181182
11/02/2013,CRAWFORD PLACE,51.517654,-0.1666707,527303,181451
11/02/2013,INVERNESS TERRACE,51.512222,-0.1863594,525952,180813
11/02/2013,RUPERT STREET,51.511482,-0.1330534,529653,180823
11/02/2013,WARDOUR STREET,51.51233,-0.1329589,529657,180918
11/02/2013,WESTBOURNE GROVE,51.515175,-0.1939386,525418,181128
12/08/2012,BEAK STREET,51.51242,-0.137495,529342,180920
12/08/2012,BRIDLE LANE,51.511406,-0.1357926,529463,180810
12/08/2012,BROADWICK STREET,51.513233,-0.1370583,529370,181011
12/08/2012,GREAT PULTENEY STREET,51.511612,-0.1354094,529489,180834
12/08/2012,LEXINGTON STREET,51.51185,-0.1349818,529518,180861
12/08/2012,MARSHALL STREET,51.513046,-0.1376969,529326,180989
12/08/2012,NOEL STREET,51.514824,-0.137195,529356,181188
12/08/2012,PORTLAND MEWS,51.51403,-0.1359159,529447,181102
12/08/2012,QUEENSWAY,51.515408,-0.1882362,525813,181164
12/08/2012,RAMILLIES STREET,51.51447,-0.1385788,529261,181146
12/08/2012,SHIRLAND ROAD,51.525486,-0.1914112,525565,182279
12/08/2012,SWALLOW PASSAGE,51.514908,-0.1424235,528993,181188
02/04/2013,ARGYLL STREET,51.51401,-0.1402549,529146,181092
02/04/2013,Not Recorded,51.514595,-0.131252,529769,181173
02/04/2013,PARK ROAD,51.529495,-0.1671315,527238,182766
02/04/2013,RUPERT STREET,51.511482,-0.1330534,529653,180823
09/07/2012,BUCKINGHAM PALACE ROAD,51.492702,-0.147683,528691,178709
09/07/2012,GROSVENOR GARDENS,51.495914,-0.1454804,528835,179070
09/07/2012,ORANGE STREET,51.509495,-0.1299477,529874,180608
09/07/2012,PICCADILLY,51.50311,-0.1497623,528517,179863
09/07/2012,SUTHERLAND AVENUE,51.52574,-0.1870042,525870,182315
09/07/2012,VAUXHALL BRIDGE ROAD,51.490948,-0.1342075,529631,178538
09/07/2012,WARWICK SQUARE,51.49019,-0.1424638,529060,178439
19/09/2012,BUCKINGHAM PALACE ROAD,51.492702,-0.147683,528691,178709
19/09/2012,ELIZABETH BRIDGE,51.49252,-0.1477711,528685,178689
19/09/2012,HARROW ROAD,51.52653,-0.2079486,524415,182367
19/09/2012,SHIRLAND ROAD,51.525486,-0.1914112,525565,182279
19/09/2012,TRAFALGAR SQUARE,51.508335,-0.1272176,530067,180484
19/09/2012,VAUXHALL BRIDGE ROAD,51.490948,-0.1342075,529631,178538
19/09/2012,VICTORIA STREET,51.49657,-0.1428958,529012,179148
21/05/2013,BUCKINGHAM GATE,51.500042,-0.1407178,529153,179537
21/05/2013,GILLINGHAM ROW,51.49408,-0.1407208,529170,178875
21/05/2013,GROSVENOR PLACE,51.500652,-0.1497466,528525,179590
21/05/2013,PALMER STREET,51.499577,-0.135656,529506,179495
21/05/2013,ST JOHN'S WOOD ROAD,51.528515,-0.1723135,526881,182648
12/09/2013,BAKER STREET,51.51945,-0.156278,528019,181669
12/09/2013,HUGH STREET,51.49281,-0.1449647,528879,178726
12/09/2013,NEW BOND STREET,51.51116,-0.1432821,528944,180770
12/09/2013,OLD BOND STREET,51.50891,-0.1408518,529119,180524
12/09/2013,OXFORD STREET,51.51545,-0.1406854,529112,181251
12/09/2013,PADDINGTON STREET,51.520657,-0.1539374,528178,181807
12/09/2013,PORTMAN SQUARE,51.515068,-0.1565416,528013,181181
12/09/2013,SEYMOUR PLACE,51.52054,-0.1638199,527493,181776
12/09/2013,SHAFTESBURY AVENUE,51.511116,-0.1335539,529619,180782
12/09/2013,VAUXHALL BRIDGE ROAD,51.490948,-0.1342075,529631,178538
23/06/2013,DOUGLAS STREET,51.49138,-0.1336281,529670,178587
22/07/2013,CHURCH PLACE,51.50858,-0.1362395,529440,180495
22/07/2013,FERMOY ROAD,51.524857,-0.2043959,524666,182187
22/07/2013,QUEENSBOROUGH TERRACE,51.513954,-0.1860456,525969,181006
22/07/2013,ST PETERSBURGH PLACE,51.51232,-0.1910393,525627,180816
16/05/2012,ABBEY ROAD,51.532787,-0.1781019,526468,183114
16/05/2012,BUCKINGHAM PALACE ROAD,51.492702,-0.147683,528691,178709
16/05/2012,GREAT PORTLAND STREET,51.519096,-0.1422818,528991,181654
16/05/2012,HARROW ROAD,51.52653,-0.2079486,524415,182367
16/05/2012,KNIGHTSBRIDGE,51.502438,-0.1562014,528072,179777
16/05/2012,LITTLE PORTLAND STREET,51.51714,-0.1414102,529057,181438
16/05/2012,Not Recorded,0.0,0.0,0,0
16/05/2012,PICCADILLY,51.50311,-0.1497623,528517,179863
16/05/2012,QUEENSWAY,51.515408,-0.1882362,525813,181164
27/07/2012,ELIZABETH BRIDGE,51.49252,-0.1477711,528685,178689
27/07/2012,MACCLESFIELD STREET,51.512207,-0.1314795,529760,180907
27/07/2012,QUEENSWAY,51.515408,-0.1882362,525813,181164
27/07/2012,REGENT STREET,51.516247,-0.1423526,528994,181336
27/07/2012,THIRD AVENUE,51.530933,-0.2093684,524305,182854
27/07/2012,VAUXHALL BRIDGE ROAD,51.490948,-0.1342075,529631,178538
27/07/2012,VICTORIA STREET,51.49657,-0.1428958,529012,179148
14/04/2013,MAIDEN LANE,51.51036,-0.1241106,530277,180714
14/04/2013,VICTORIA STREET,51.49657,-0.1428958,529012,179148
25/09/2012,BLOMFIELD VILLAS,51.520008,-0.1856607,525979,181680
25/09/2012,HARROW ROAD,51.52653,-0.2079486,524415,182367
25/09/2012,LUXBOROUGH STREET,51.52266,-0.1542456,528151,182029
25/09/2012,Not Recorded,0.0,0.0,0,0
25/09/2012,ST STEPHEN'S GARDENS,51.518166,-0.1960399,525264,181457
25/07/2012,BAYSWATER ROAD,51.512917,-0.1632581,527553,180930
25/07/2012,CHARING CROSS,51.50735,-0.1280092,530015,180373
25/07/2012,GREAT GEORGE STREET,51.501152,-0.1278831,530041,179684
25/07/2012,GREAT SCOTLAND YARD,51.506344,-0.1257681,530173,180265
25/07/2012,HANWAY STREET,51.509796,-0.1279754,530010,180645
25/07/2012,ILCHESTER GARDENS,51.51305,-0.1912772,525609,180896
25/07/2012,Not Recorded,0.0,0.0,0,0
25/07/2012,PICCADILLY,51.50311,-0.1497623,528517,179863
25/07/2012,PICCADILLY CIRCUS,51.510098,-0.134549,529553,180667
25/07/2012,SHAFTESBURY AVENUE,51.511116,-0.1335539,529619,180782
25/07/2012,SMITH'S COURT,51.51161,-0.1345737,529547,180835
25/07/2012,TACHBROOK STREET,51.49196,-0.1384015,529337,178643
25/07/2012,TRAFALGAR SQUARE,51.508335,-0.1272176,530067,180484
25/07/2012,VAUXHALL BRIDGE ROAD,51.490948,-0.1342075,529631,178538
25/07/2012,VICTORIA STREET,51.49657,-0.1428958,529012,179148
25/07/2012,WHITEHALL,51.505646,-0.1266961,530111,180185
24/05/2012,EBURY STREET,51.493305,-0.1502891,528508,178772
24/05/2012,ELIZABETH STREET,51.493107,-0.149751,528546,178750
24/05/2012,HALL ROAD,51.528522,-0.1810858,526273,182634
24/05/2012,LISSON GROVE,51.526028,-0.171018,526978,182374
24/05/2012,Not Recorded,0.0,0.0,0,0
24/05/2012,TERMINUS PLACE,51.49606,-0.1447318,528886,179088
24/05/2012,VICTORIA STREET,51.49657,-0.1428958,529012,179148
11/10/2012,ECCLESTON PLACE,51.49433,-0.1473808,528707,178891
11/10/2012,GOLDEN SQUARE,51.511723,-0.1377828,529324,180842
11/10/2012,PICCADILLY CIRCUS,51.510098,-0.134549,529553,180667
11/10/2012,QUEENSWAY,51.515408,-0.1882362,525813,181164
11/10/2012,RUPERT STREET,51.511482,-0.1330534,529653,180823
11/10/2012,WESTBOURNE PARK VILLAS,51.518692,-0.1889706,525753,181528
18/02/2013,ALDRIDGE ROAD VILLAS,51.51832,-0.1994932,525024,181468
18/02/2013,CONDUIT COURT,51.51196,-0.1254223,530181,180890
18/02/2013,LEAMINGTON ROAD VILLAS,51.519913,-0.2021401,524836,181641
18/02/2013,LORD HILL'S BRIDGE,51.518692,-0.1889706,525753,181528
18/02/2013,REGENT STREET,51.516247,-0.1423526,528994,181336
18/02/2013,WESTBOURNE PARK ROAD,51.51799,-0.1911462,525604,181446
02/08/2012,BAYSWATER ROAD,51.512917,-0.1632581,527553,180930
02/08/2012,BUCKINGHAM GATE,51.500042,-0.1407178,529153,179537
02/08/2012,CAUSTON STREET,51.49105,-0.1321902,529771,178553
02/08/2012,HANWAY STREET,51.509796,-0.1279754,530010,180645
02/08/2012,Not Recorded,0.0,0.0,0,0
02/08/2012,ST MARTIN'S PLACE,51.509506,-0.1273985,530051,180614
02/08/2012,VICTORIA STREET,51.49657,-0.1428958,529012,179148
02/08/2012,WILFRED STREET,51.49842,-0.1403569,529183,179358
02/08/2012,WILTON ROAD,51.49502,-0.1426527,529033,178976
23/06/2012,BRESSENDEN PLACE,51.497925,-0.1431145,528993,179298
23/06/2012,Not Recorded,51.522213,-0.1422207,528987,182000
21/06/2013,EDGWARE ROAD,51.517857,-0.1671549,527269,181472
21/06/2013,Not Recorded,51.512466,-0.1331262,529645,180933
21/06/2013,PADDINGTON STREET,51.520657,-0.1539374,528178,181807
21/06/2013,PARK LANE,51.506317,-0.1523064,528332,180215
21/06/2013,PORCHESTER ROAD,51.517197,-0.1881652,525813,181363
21/06/2013,VAUXHALL BRIDGE ROAD,51.490948,-0.1342075,529631,178538
21/06/2013,VILLIERS STREET,51.508396,-0.1243436,530266,180496
02/11/2012,ADELAIDE STREET,51.509144,-0.1258982,530156,180576
02/11/2012,FRITH STREET,51.514004,-0.1317807,529734,181106
02/11/2012,HAYMARKET,51.510117,-0.1333568,529636,180671
02/11/2012,TERMINUS PLACE,51.496166,-0.1451723,528855,179099
02/11/2012,VAUXHALL BRIDGE ROAD,51.495995,-0.1423717,529050,179085
02/11/2012,VICTORIA STREET,51.49657,-0.1428958,529012,179148
02/11/2012,WILTON ROAD,51.49502,-0.1426527,529033,178976
19/08/2013,REGENCY STREET,51.49346,-0.1322999,529756,178820
19/08/2013,TERMINUS PLACE,51.49606,-0.1447318,528886,179088
19/08/2013,UPPER BERKELEY STREET,51.515984,-0.1570235,527977,181282
19/08/2013,VAUXHALL BRIDGE ROAD,51.490948,-0.1342075,529631,178538
19/08/2013,WILTON ROAD,51.49502,-0.1426527,529033,178976
25/10/2012,BUCKINGHAM PALACE ROAD,51.49415,-0.1467903,528749,178871
25/10/2012,HUGH STREET,51.49281,-0.1449647,528879,178726
25/10/2012,Not Recorded,0.0,0.0,0,0
25/10/2012,VICTORIA STREET,51.49657,-0.1428958,529012,179148
25/10/2012,WESTMORELAND TERRACE,51.487186,-0.145409,528864,178100
25/10/2012,WILTON ROAD,51.49262,-0.140377,529198,178713
29/08/2012,BUCKINGHAM PALACE ROAD,51.492702,-0.147683,528691,178709
29/08/2012,CHEPSTOW PLACE,51.51204,-0.1941059,525415,180779
29/08/2012,ECCLESTON BRIDGE,51.494102,-0.1466265,528760,178867
29/08/2012,GREAT WESTERN ROAD,51.520588,-0.2003406,524959,181719
29/08/2012,GROSVENOR GARDENS,51.495914,-0.1454804,528835,179070
29/08/2012,HAYMARKET,51.510117,-0.1333568,529636,180671
29/08/2012,HORMEAD ROAD,51.523323,-0.2017606,524853,182021
29/08/2012,LANCASTER GATE,51.511135,-0.1829438,526192,180698
29/08/2012,LEAMINGTON ROAD VILLAS,51.519913,-0.2021401,524836,181641
29/08/2012,NOEL STREET,51.514824,-0.137195,529356,181188
29/08/2012,NORTHUMBERLAND AVENUE,51.50672,-0.1231922,530351,180311
29/08/2012,Not Recorded,0.0,0.0,0,0
29/08/2012,OSSINGTON STREET,51.511612,-0.1928256,525505,180734
29/08/2012,PORCHESTER ROAD,51.517197,-0.1881652,525813,181363
29/08/2012,QUEENSWAY,51.515408,-0.1882362,525813,181164
29/08/2012,SHREWSBURY ROAD,51.51726,-0.196998,525200,181355
29/08/2012,WESTBOURNE GROVE,51.515175,-0.1939386,525418,181128
29/08/2012,WESTBOURNE PARK ROAD,51.51799,-0.1911462,525604,181446
17/04/2012,VICTORIA PASSAGE,51.525326,-0.1742768,526754,182291
17/04/2012,WARRINGTON GARDENS,51.523655,-0.1851843,526002,182086
09/05/2013,BAKER STREET,51.51945,-0.156278,528019,181669
09/05/2013,BUCKINGHAM PALACE ROAD,51.492702,-0.147683,528691,178709
09/05/2013,PETER STREET,51.51298,-0.1336817,529605,180989
09/05/2013,SHAFTESBURY AVENUE,51.511116,-0.1335539,529619,180782
09/05/2013,SUSSEX GARDENS,51.51472,-0.1735193,526836,181113
09/05/2013,TERMINUS PLACE,51.49606,-0.1447318,528886,179088
09/05/2013,VICTORIA STREET,51.49657,-0.1428958,529012,179148
08/08/2012,BAKER STREET,51.51945,-0.156278,528019,181669
08/08/2012,GREAT WINDMILL STREET,51.510685,-0.1339126,529596,180733
08/08/2012,VICTORIA STREET,51.49657,-0.1428958,529012,179148
08/08/2012,WILTON ROAD,51.49502,-0.1426527,529033,178976
21/08/2012,ABBEY ROAD,51.532787,-0.1781019,526468,183114
21/08/2012,COCKSPUR COURT,51.507145,-0.129088,529940,180348
21/08/2012,HANWAY STREET,51.509796,-0.1279754,530010,180645
21/08/2012,Not Recorded,51.512856,-0.1247945,530222,180991
21/08/2012,SHIRLAND ROAD,51.525486,-0.1914112,525565,182279
21/08/2012,TERMINUS PLACE,51.49606,-0.1447318,528886,179088
21/08/2012,VAUXHALL BRIDGE ROAD,51.490948,-0.1342075,529631,178538
21/08/2012,VICTORIA STREET,51.49657,-0.1428958,529012,179148
14/09/2013,VICTORIA STREET,51.49657,-0.1428958,529012,179148
13/09/2012,ADELAIDE STREET,51.509144,-0.1258982,530156,180576
13/09/2012,BISHOP'S BRIDGE ROAD,51.516167,-0.1871855,525884,181250
13/09/2012,BUCKINGHAM PALACE ROAD,51.492702,-0.147683,528691,178709
13/09/2012,EBURY BRIDGE,51.49077,-0.1496572,528559,178491
13/09/2012,EBURY BRIDGE ROAD,51.488445,-0.1507495,528490,178230
13/09/2012,GLOUCESTER TERRACE,51.51769,-0.1886357,525779,181417
13/09/2012,GUILDHOUSE STREET,51.492256,-0.1412849,529136,178671
13/09/2012,LANCASTER GATE,51.511135,-0.1829438,526192,180698
13/09/2012,LONGMOORE STREET,51.492905,-0.1396595,529247,178746
13/09/2012,NOEL STREET,51.514824,-0.137195,529356,181188
13/09/2012,PRAED STREET,51.515957,-0.1749476,526734,181248
13/09/2012,SALEM ROAD,51.513348,-0.1889729,525768,180933
13/09/2012,WARLOCK ROAD,51.526466,-0.1990562,525032,182375
13/09/2012,WILTON ROAD,51.49502,-0.1426527,529033,178976
24/12/2012,MARYLEBONE ROAD,51.52324,-0.1504129,528415,182100
24/12/2012,TACHBROOK STREET,51.49196,-0.1384015,529337,178643
24/12/2012,TERMINUS PLACE,51.49606,-0.1447318,528886,179088
05/03/2013,ASHLEY PLACE,51.496082,-0.141601,529103,179096
05/03/2013,BUCKINGHAM PALACE ROAD,51.492702,-0.147683,528691,178709
05/03/2013,PANTON STREET,51.509808,-0.1310284,529798,180641
05/03/2013,TERMINUS PLACE,51.49606,-0.1447318,528886,179088
05/03/2013,WHITCOMB STREET,51.50816,-0.1297861,529889,180460
06/06/2012,EDGWARE ROAD,51.517857,-0.1671549,527269,181472
06/06/2012,MAIDA VALE,51.53088,-0.1844811,526031,182891
06/06/2012,Not Recorded,0.0,0.0,0,0
24/04/2013,ECCLESTON SQUARE,51.492588,-0.1428849,529024,178705
24/04/2013,INVERNESS PLACE,51.512222,-0.1863594,525952,180813
24/04/2013,MORETON STREET,51.489845,-0.1356066,529537,178413
24/04/2013,PORCHESTER GARDENS,51.513706,-0.1891541,525754,180973
24/04/2013,VICTORIA STREET,51.49657,-0.1428958,529012,179148
24/04/2013,WILTON ROAD,51.49502,-0.1426527,529033,178976
11/09/2012,BUCKINGHAM PALACE ROAD,51.492702,-0.147683,528691,178709
11/09/2012,CHEPSTOW PLACE,51.51204,-0.1941059,525415,180779
11/09/2012,EBURY STREET,51.493305,-0.1502891,528508,178772
11/09/2012,ELIZABETH STREET,51.493107,-0.149751,528546,178750
11/09/2012,INVERNESS PLACE,51.512222,-0.1863594,525952,180813
11/09/2012,LEICESTER SQUARE,51.510597,-0.1308323,529810,180729
11/09/2012,PHIPPS MEWS,51.49551,-0.1464397,528769,179024
11/09/2012,PRAED STREET,51.515957,-0.1749476,526734,181248
11/09/2012,QUEENSWAY,51.515408,-0.1882362,525813,181164
11/09/2012,ST JAMES'S MARKET,51.50925,-0.133373,529637,180575
11/09/2012,UPPER BERKELEY STREET,51.515984,-0.1570235,527977,181282
11/09/2012,WESTBOURNE GROVE,51.515175,-0.1939386,525418,181128
09/03/2013,BELGRAVE ROAD,51.49032,-0.138078,529364,178461
09/03/2013,BUCKINGHAM PALACE ROAD,51.492702,-0.147683,528691,178709
09/03/2013,ECCLESTON PLACE,51.49433,-0.1473808,528707,178891
09/03/2013,UPPER TACHBROOK STREET,51.49351,-0.139593,529250,178813
09/03/2013,WARWICK WAY,51.490376,-0.1462504,528797,178453
26/02/2013,BRYANSTON STREET,51.513927,-0.161097,527700,181046
26/02/2013,GLOUCESTER PLACE,51.5191,-0.1584399,527870,181626
26/02/2013,KENSINGTON GARDENS SQUARE,51.514603,-0.190776,525639,181070
26/02/2013,OLD MARYLEBONE ROAD,51.519005,-0.1663096,527324,181601
26/02/2013,PORCHESTER ROAD,51.517197,-0.1881652,525813,181363
26/02/2013,WESTBOURNE TERRACE,51.51552,-0.1791649,526442,181191
02/07/2013,ALLITSEN ROAD,51.534332,-0.168192,527151,183303
02/07/2013,BAKER STREET,51.51945,-0.156278,528019,181669
02/07/2013,BUCKINGHAM PALACE ROAD,51.492702,-0.147683,528691,178709
02/07/2013,FRANCIS STREET,51.496666,-0.1370714,529416,179169
02/07/2013,GILLINGHAM STREET,51.49421,-0.1408741,529159,178889
02/07/2013,LONDON STREET,51.51669,-0.1757188,526678,181328
02/07/2013,OXENDON STREET,51.510296,-0.1322928,529709,180693
02/07/2013,PORTMAN SQUARE,51.515068,-0.1565416,528013,181181
02/07/2013,VAUXHALL BRIDGE ROAD,51.490948,-0.1342075,529631,178538
02/07/2013,VICTORIA STREET,51.49657,-0.1428958,529012,179148
02/07/2013,WESTBOURNE PARK ROAD,51.51799,-0.1911462,525604,181446
02/07/2013,WILTON ROAD,51.49502,-0.1426527,529033,178976
12/11/2012,ARTILLERY ROW,51.49695,-0.1356048,529517,179203
12/11/2012,ASHLEY PLACE,51.496082,-0.141601,529103,179096
12/11/2012,BUCKINGHAM GATE,51.500042,-0.1407178,529153,179537
12/11/2012,CUNNINGHAM PLACE,51.526844,-0.1758596,526640,182456
12/11/2012,GREAT WESTERN ROAD,51.520588,-0.2003406,524959,181719
12/11/2012,HOWICK PLACE,51.496666,-0.1370714,529416,179169
12/11/2012,LUMLEY COURT,51.510223,-0.1221933,530410,180703
12/11/2012,Not Recorded,0.0,0.0,0,0
12/11/2012,WILCOX PLACE,51.49671,-0.1370696,529416,179174
05/08/2012,BAYSWATER ROAD,51.512917,-0.1632581,527553,180930
05/08/2012,WARDOUR STREET,51.51233,-0.1329589,529657,180918
06/08/2012,AMBROSDEN AVENUE,51.496754,-0.1391802,529269,179174
06/08/2012,BAYSWATER ROAD,51.512917,-0.1632581,527553,180930
06/08/2012,BUCKINGHAM PALACE ROAD,51.492702,-0.147683,528691,178709
06/08/2012,EBURY STREET,51.493305,-0.1502891,528508,178772
06/08/2012,GREAT MARLBOROUGH STREET,51.514248,-0.1393743,529207,181119
06/08/2012,GROSVENOR GARDENS,51.495914,-0.1454804,528835,179070
06/08/2012,HAYMARKET,51.510117,-0.1333568,529636,180671
06/08/2012,HOBART PLACE,51.497486,-0.1491082,528578,179238
06/08/2012,NOEL STREET,51.514824,-0.137195,529356,181188
06/08/2012,Not Recorded,51.51418,-0.1180239,530688,181150
06/08/2012,PICCADILLY CIRCUS,51.510098,-0.134549,529553,180667
06/08/2012,VICTORIA EMBANKMENT,51.504677,-0.1232285,530354,180084
06/08/2012,WARDOUR STREET,51.51233,-0.1329589,529657,180918
19/06/2013,COVENTRY STREET,51.510105,-0.1334536,529629,180669
19/06/2013,DAVENTRY STREET,51.52159,-0.1671756,527257,181888
19/06/2013,ELGIN AVENUE,51.52462,-0.2001094,524964,182168
19/06/2013,MARYLEBONE ROAD,51.52324,-0.1504129,528415,182100
19/06/2013,PENFOLD STREET,51.523457,-0.1725209,526881,182086
19/06/2013,TERMINUS PLACE,51.49606,-0.1447318,528886,179088
19/06/2013,VAUXHALL BRIDGE ROAD,51.490948,-0.1342075,529631,178538
19/06/2013,VENABLES STREET,51.52291,-0.1732492,526832,182024
19/06/2013,VICTORIA STREET,51.49657,-0.1428958,529012,179148
19/06/2013,WILTON ROAD,51.49502,-0.1426527,529033,178976
07/09/2012,GROSVENOR GARDENS,51.495914,-0.1454804,528835,179070
07/09/2012,MARTLETT COURT,51.51318,-0.1218844,530423,181032
07/09/2012,STRAND,51.51249,-0.1159893,530834,180966
07/09/2012,SUTHERLAND AVENUE,51.52574,-0.1870042,525870,182315
22/01/2013,BUCKINGHAM PALACE ROAD,51.492702,-0.147683,528691,178709
22/01/2013,HAYMARKET,51.510117,-0.1333568,529636,180671
22/01/2013,NOTTINGHAM PLACE,51.52131,-0.1530894,528235,181881
22/01/2013,Not Recorded,51.519627,-0.1455756,528761,181707
22/01/2013,VICTORIA STREET,51.49657,-0.1428958,529012,179148
18/06/2012,AIR STREET,51.509422,-0.1358552,529464,180589
18/06/2012,BERKELEY STREET,51.50893,-0.1441656,528889,180520
18/06/2012,DOVER STREET,51.508404,-0.1421695,529029,180465
18/06/2012,GROSVENOR SQUARE,51.51103,-0.1505799,528438,180742
18/06/2012,Not Recorded,0.0,0.0,0,0
18/06/2012,PALACE STREET,51.496956,-0.139264,529263,179197
18/06/2012,PICCADILLY,51.50311,-0.1497623,528517,179863
18/06/2012,VICTORIA STREET,51.49657,-0.1428958,529012,179148
18/06/2012,WESTBOURNE TERRACE,51.51552,-0.1791649,526442,181191
02/06/2013,EDGWARE ROAD,51.517857,-0.1671549,527269,181472
02/06/2013,GROSVENOR GARDENS,51.495914,-0.1454804,528835,179070
02/06/2013,INVERNESS PLACE,51.512222,-0.1863594,525952,180813
02/06/2013,PORCHESTER ROAD,51.517197,-0.1881652,525813,181363
02/06/2013,WESTBOURNE TERRACE,51.51552,-0.1791649,526442,181191
03/04/2013,ABERCORN PLACE,51.531166,-0.1834116,526104,182924
03/04/2013,BELGRAVE ROAD,51.49032,-0.138078,529364,178461
03/04/2013,DELAMERE TERRACE,51.522053,-0.187027,525879,181904
03/04/2013,GILLINGHAM STREET,51.49421,-0.1408741,529159,178889
03/04/2013,HARROWBY STREET,51.516872,-0.165526,527385,181365
03/04/2013,PENFOLD STREET,51.523457,-0.1725209,526881,182086
03/04/2013,PORCHESTER GARDENS,51.513706,-0.1891541,525754,180973
03/04/2013,QUEENSWAY,51.515408,-0.1882362,525813,181164
03/04/2013,WARDOUR STREET,51.51233,-0.1329589,529657,180918
03/04/2013,YORK STREET,51.52072,-0.1580285,527894,181807
12/08/2013,CLAVERTON STREET,51.48798,-0.1384094,529348,178200
12/08/2013,DART STREET,51.530903,-0.2049662,524610,182858
12/08/2013,MARYLEBONE ROAD,51.52324,-0.1504129,528415,182100
12/08/2013,OLD MARYLEBONE ROAD,51.519005,-0.1663096,527324,181601
12/08/2013,PICCADILLY CIRCUS,51.510098,-0.134549,529553,180667
12/08/2013,VAUXHALL BRIDGE ROAD,51.490948,-0.1342075,529631,178538
12/08/2013,WHITEHALL,51.505646,-0.1266961,530111,180185
12/08/2013,WILTON ROAD,51.49502,-0.1426527,529033,178976
10/05/2012,BUCKINGHAM PALACE ROAD,51.492702,-0.147683,528691,178709
10/05/2012,ECCLESTON BRIDGE,51.494102,-0.1466265,528760,178867
10/05/2012,Not Recorded,0.0,0.0,0,0
10/05/2012,TERMINUS PLACE,51.49606,-0.1447318,528886,179088
10/05/2012,VENICE WALK,51.521072,-0.1804293,526339,181807
10/05/2012,WHITEHALL,51.505646,-0.1266961,530111,180185
14/10/2012,ARTILLERY ROW,51.49695,-0.1356048,529517,179203
28/06/2012,COVENTRY STREET,51.510105,-0.1334536,529629,180669
28/06/2012,HAYMARKET,51.510117,-0.1333568,529636,180671
28/06/2012,MERCER STREET,51.512543,-0.1253839,530182,180955
28/06/2012,Not Recorded,0.0,0.0,0,0
28/06/2012,REGENT STREET,51.516247,-0.1423526,528994,181336
28/06/2012,WHITCOMB STREET,51.50816,-0.1297861,529889,180460
01/05/2012,Not Recorded,0.0,0.0,0,0
07/07/2013,BAKER STREET,51.51945,-0.156278,528019,181669
07/07/2013,MANCHESTER STREET,51.518444,-0.1538684,528189,181561
07/07/2013,PORTMAN SQUARE,51.515068,-0.1565416,528013,181181
12/06/2012,ARGYLL STREET,51.51401,-0.1402549,529146,181092
12/06/2012,BERWICK STREET,51.513866,-0.1351638,529500,181085
12/06/2012,BISHOP'S BRIDGE ROAD,51.516167,-0.1871855,525884,181250
12/06/2012,Not Recorded,0.0,0.0,0,0
12/06/2012,POLAND STREET,51.51576,-0.1376902,529319,181291
12/06/2012,WESTBOURNE TERRACE,51.51552,-0.1791649,526442,181191
08/01/2013,CLIFTON GARDENS,51.525238,-0.1801477,526347,182271
08/01/2013,ECCLESTON SQUARE,51.492588,-0.1428849,529024,178705
08/01/2013,PRINCE CONSORT ROAD,51.49998,-0.1755408,526737,179470
08/01/2013,SHAFTESBURY AVENUE,51.511116,-0.1335539,529619,180782
08/01/2013,TACHBROOK STREET,51.49196,-0.1384015,529337,178643
08/01/2013,TERMINUS PLACE,51.49606,-0.1447318,528886,179088
08/01/2013,VICTORIA STREET,51.49657,-0.1428958,529012,179148
08/01/2013,WARDOUR STREET,51.51233,-0.1329589,529657,180918
08/01/2013,WOODFIELD ROAD,51.522953,-0.2010112,524906,181981
19/07/2012,BAYSWATER ROAD,51.512917,-0.1632581,527553,180930
19/07/2012,INVERNESS TERRACE,51.512222,-0.1863594,525952,180813
19/07/2012,NOEL STREET,51.514824,-0.137195,529356,181188
19/07/2012,Not Recorded,0.0,0.0,0,0
19/07/2012,PORTNALL ROAD,51.531013,-0.2041248,524668,182872
19/07/2012,REGENCY STREET,51.49346,-0.1322999,529756,178820
19/07/2012,THIRD AVENUE,51.530933,-0.2093684,524305,182854
19/07/2012,WATERLOO BRIDGE,51.506084,-0.1147406,530939,180256
18/04/2013,BELGRAVE ROAD,51.49032,-0.138078,529364,178461
18/04/2013,BUCKINGHAM PALACE ROAD,51.492702,-0.147683,528691,178709
18/04/2013,ECCLESTON STREET,51.49477,-0.1485436,528625,178937
18/04/2013,FRANCIS STREET,51.496666,-0.1370714,529416,179169
18/04/2013,ROSSMORE ROAD,51.52404,-0.1673655,527237,182160
18/04/2013,TERMINUS PLACE,51.49606,-0.1447318,528886,179088
18/04/2013,VAUXHALL BRIDGE ROAD,51.490948,-0.1342075,529631,178538
18/04/2013,VICTORIA STREET,51.49657,-0.1428958,529012,179148
18/04/2013,WESTBOURNE GROVE,51.515175,-0.1939386,525418,181128
18/04/2013,WILTON ROAD,51.49502,-0.1426527,529033,178976
06/07/2012,CARLISLE PLACE,51.495937,-0.1414665,529113,179080
06/07/2012,CATO STREET,51.51758,-0.1644888,527455,181446
06/07/2012,VICTORIA STREET,51.49657,-0.1428958,529012,179148
11/01/2013,ARGYLL STREET,51.51401,-0.1402549,529146,181092
11/01/2013,HUGH STREET,51.49281,-0.1449647,528879,178726
11/01/2013,PALL MALL,51.50619,-0.135376,529507,180231
11/01/2013,RAMILLIES STREET,51.51447,-0.1385788,529261,181146
11/01/2013,WHITEHALL,51.505646,-0.1266961,530111,180185
14/05/2012,DOUGLAS STREET,51.49138,-0.1336281,529670,178587
14/05/2012,HARROW ROAD,51.52653,-0.2079486,524415,182367
14/05/2012,Not Recorded,0.0,0.0,0,0
14/05/2012,OLD PYE STREET,51.497536,-0.1323392,529742,179274
03/06/2012,PORCHESTER ROAD,51.517197,-0.1881652,525813,181363
03/06/2012,WILTON ROAD,51.49502,-0.1426527,529033,178976
17/08/2013,BUCKINGHAM GATE,51.500042,-0.1407178,529153,179537
17/08/2013,BUCKINGHAM PALACE ROAD,51.492702,-0.147683,528691,178709
17/08/2013,TERMINUS PLACE,51.49606,-0.1447318,528886,179088
17/08/2013,VICTORIA SQUARE,51.49822,-0.1446298,528887,179328
08/04/2013,GREAT WINDMILL STREET,51.510685,-0.1339126,529596,180733
08/04/2013,HYDE PARK SQUARE,51.514107,-0.1700619,527078,181050
08/04/2013,LOWER BELGRAVE STREET,51.496597,-0.1480092,528657,179142
08/04/2013,PORCHESTER ROAD,51.517197,-0.1881652,525813,181363
31/08/2013,ASHLEY PLACE,51.496082,-0.141601,529103,179096
31/08/2013,BUCKINGHAM PALACE ROAD,51.492702,-0.147683,528691,178709
31/08/2013,PORCHESTER ROAD,51.517197,-0.1881652,525813,181363
31/08/2013,ST MARY'S SQUARE,51.520485,-0.1765628,526609,181748
31/08/2013,WARWICK ROW,51.497925,-0.1431145,528993,179298
22/10/2012,BELGRAVE ROAD,51.49032,-0.138078,529364,178461
22/10/2012,BRIDGE PLACE,51.49338,-0.1446252,528901,178790
22/10/2012,BUCKINGHAM PALACE ROAD,51.492702,-0.147683,528691,178709
22/10/2012,ECCLESTON BRIDGE,51.494102,-0.1466265,528760,178867
22/10/2012,ECCLESTON SQUARE,51.492588,-0.1428849,529024,178705
22/10/2012,ELIZABETH BRIDGE,51.49252,-0.1477711,528685,178689
22/10/2012,ELIZABETH STREET,51.493107,-0.149751,528546,178750
22/10/2012,LEICESTER SQUARE,51.510597,-0.1308323,529810,180729
22/10/2012,LONG ACRE,51.513268,-0.1241002,530269,181038
22/10/2012,MARBLE ARCH,51.513344,-0.1590076,527847,180985
22/10/2012,PRAED STREET,51.515957,-0.1749476,526734,181248
25/06/2012,GREAT PORTLAND STREET,51.519096,-0.1422818,528991,181654
25/06/2012,PICCADILLY,51.50311,-0.1497623,528517,179863
25/06/2012,VAUXHALL BRIDGE ROAD,51.490948,-0.1342075,529631,178538
14/09/2012,BERWICK STREET,51.513866,-0.1351638,529500,181085
14/09/2012,BRESSENDEN PLACE,51.497925,-0.1431145,528993,179298
14/09/2012,BRIDGE PLACE,51.49338,-0.1446252,528901,178790
14/09/2012,BUCKINGHAM GATE,51.500042,-0.1407178,529153,179537
14/09/2012,BUCKINGHAM PALACE ROAD,51.492702,-0.147683,528691,178709
14/09/2012,HANWAY STREET,51.509796,-0.1279754,530010,180645
14/09/2012,Not Recorded,0.0,0.0,0,0
14/09/2012,QUEEN'S MEWS,51.513115,-0.1901732,525685,180905
14/09/2012,RICHMOND MEWS,51.51411,-0.1336617,529603,181114
14/09/2012,SHAFTESBURY AVENUE,51.511116,-0.1335539,529619,180782
14/09/2012,WILTON ROAD,51.49502,-0.1426527,529033,178976
05/08/2013,CRANBOURN ALLEY,51.51092,-0.1287074,529956,180769
05/08/2013,GREAT WINDMILL STREET,51.510685,-0.1339126,529596,180733
05/08/2013,SHAFTESBURY AVENUE,51.511116,-0.1335539,529619,180782
05/08/2013,STRAND,51.51249,-0.1159893,530834,180966
05/08/2013,WARDOUR STREET,51.51233,-0.1329589,529657,180918
30/01/2013,BUCKINGHAM PALACE ROAD,51.492702,-0.147683,528691,178709
30/01/2013,ECCLESTON STREET,51.49477,-0.1485436,528625,178937
30/01/2013,PICCADILLY CIRCUS,51.510098,-0.134549,529553,180667
30/01/2013,ST GEORGE'S DRIVE,51.48896,-0.1398633,529244,178307
30/01/2013,ST VINCENT STREET,51.518814,-0.1529308,528253,181604
30/01/2013,TERMINUS PLACE,51.49606,-0.1447318,528886,179088
07/06/2012,JERMYN STREET,51.507893,-0.1383138,529298,180415
07/06/2012,Not Recorded,0.0,0.0,0,0
07/06/2012,PARK ROAD,51.529495,-0.1671315,527238,182766
07/05/2012,Not Recorded,0.0,0.0,0,0
30/11/2012,ASHLEY PLACE,51.496082,-0.141601,529103,179096
30/11/2012,BAYSWATER ROAD,51.512917,-0.1632581,527553,180930
30/11/2012,BRIDGE PLACE,51.49338,-0.1446252,528901,178790
30/11/2012,BUCKINGHAM GATE,51.500042,-0.1407178,529153,179537
30/11/2012,BUCKINGHAM PALACE ROAD,51.492702,-0.147683,528691,178709
30/11/2012,BULLEID WAY,51.493763,-0.1455167,528838,178831
30/11/2012,ECCLESTON BRIDGE,51.494102,-0.1466265,528760,178867
30/11/2012,ELIZABETH BRIDGE,51.49252,-0.1477711,528685,178689
30/11/2012,QUEENSWAY,51.515408,-0.1882362,525813,181164
30/11/2012,SEYMOUR PLACE,51.52054,-0.1638199,527493,181776
30/11/2012,VAUXHALL BRIDGE ROAD,51.490948,-0.1342075,529631,178538
30/11/2012,WESTBOURNE GROVE,51.515175,-0.1939386,525418,181128
30/11/2012,WILTON ROAD,51.49502,-0.1426527,529033,178976
28/10/2012,NEW ROW,51.511032,-0.12706,530070,180784
27/08/2012,CHEPSTOW ROAD,51.51568,-0.195259,525325,181182
27/08/2012,GREAT WESTERN ROAD,51.520588,-0.2003406,524959,181719
27/08/2012,LOWNDES SQUARE,51.50125,-0.1584503,527919,179641
27/08/2012,NEWTON ROAD,51.51594,-0.1930866,525475,181215
27/08/2012,PORCHESTER GARDENS,51.513706,-0.1891541,525754,180973
27/08/2012,ST LUKE'S ROAD,51.52021,-0.2033968,524748,181672
27/08/2012,TAVISTOCK CRESCENT,51.520363,-0.200926,524919,181693
27/08/2012,TAVISTOCK ROAD,51.519913,-0.2021401,524836,181641
27/08/2012,WESTBOURNE BRIDGE,51.51824,-0.1830932,526162,181488
27/08/2012,WESTBOURNE GROVE,51.515175,-0.1939386,525418,181128
15/02/2013,ALBEMARLE STREET,51.508663,-0.1415104,529074,180495
15/02/2013,CHILTERN STREET,51.51964,-0.1552036,528093,181692
15/02/2013,TERMINUS PLACE,51.49606,-0.1447318,528886,179088
15/02/2013,UPPER TACHBROOK STREET,51.49351,-0.139593,529250,178813
15/02/2013,VAUXHALL BRIDGE ROAD,51.490948,-0.1342075,529631,178538
15/02/2013,VICTORIA STREET,51.49657,-0.1428958,529012,179148
08/12/2012,BRESSENDEN PLACE,51.497925,-0.1431145,528993,179298
26/12/2012,ORANGE STREET,51.509495,-0.1299477,529874,180608
26/12/2012,PICCADILLY,51.50311,-0.1497623,528517,179863
26/12/2012,ST MARTIN'S STREET,51.509495,-0.1299477,529874,180608
22/08/2013,BAKER STREET,51.51945,-0.156278,528019,181669
22/08/2013,DORSET STREET,51.519207,-0.1578158,527913,181639
22/08/2013,FRANCIS STREET,51.496666,-0.1370714,529416,179169
22/08/2013,GILLINGHAM STREET,51.49421,-0.1408741,529159,178889
22/08/2013,GROSVENOR PLACE,51.500652,-0.1497466,528525,179590
22/08/2013,PADDINGTON STREET,51.520657,-0.1539374,528178,181807
22/08/2013,PORTMAN SQUARE,51.515068,-0.1565416,528013,181181
22/08/2013,RUPERT STREET,51.511482,-0.1330534,529653,180823
22/08/2013,SEYMOUR PLACE,51.52054,-0.1638199,527493,181776
22/08/2013,WARDOUR STREET,51.51233,-0.1329589,529657,180918
22/08/2013,WARWICK SQUARE,51.49019,-0.1424638,529060,178439
22/08/2013,WIGMORE STREET,51.5158,-0.1521593,528315,181270
15/01/2013,BUCKINGHAM PALACE ROAD,51.492702,-0.147683,528691,178709
15/01/2013,CHIPPENHAM MEWS,51.523846,-0.1975884,525141,182086
15/01/2013,CRAVEN ROAD,51.51446,-0.1776517,526550,181077
15/01/2013,CRAVEN TERRACE,51.51236,-0.1781969,526518,180842
15/01/2013,ECCLESTON BRIDGE,51.494102,-0.1466265,528760,178867
15/01/2013,ELIZABETH STREET,51.493107,-0.149751,528546,178750
15/01/2013,HORMEAD ROAD,51.523323,-0.2017606,524853,182021
15/01/2013,INVERNESS MEWS,51.512173,-0.1871396,525898,180806
15/01/2013,VINCENT STREET,51.492977,-0.1311859,529835,178769
25/07/2013,BAKER STREET,51.51945,-0.156278,528019,181669
25/07/2013,BUCKINGHAM PALACE ROAD,51.492702,-0.147683,528691,178709
25/07/2013,EBURY STREET,51.493305,-0.1502891,528508,178772
25/07/2013,ECCLESTON STREET,51.49477,-0.1485436,528625,178937
25/07/2013,ELIZABETH STREET,51.493107,-0.149751,528546,178750
25/07/2013,GROSVENOR GARDENS,51.495914,-0.1454804,528835,179070
25/07/2013,HYDE PARK CORNER,51.503048,-0.1521999,528348,179852
25/07/2013,PICCADILLY,51.50311,-0.1497623,528517,179863
25/07/2013,PORCHESTER ROAD,51.517197,-0.1881652,525813,181363
15/03/2013,CASTLE LANE,51.49843,-0.139204,529263,179361
15/03/2013,ECCLESTON SQUARE,51.492588,-0.1428849,529024,178705
15/03/2013,HUGH STREET,51.49281,-0.1449647,528879,178726
15/03/2013,TERMINUS PLACE,51.49606,-0.1447318,528886,179088
15/03/2013,UPPER TACHBROOK STREET,51.49351,-0.139593,529250,178813
15/03/2013,VAUXHALL BRIDGE ROAD,51.490948,-0.1342075,529631,178538
15/03/2013,VICTORIA STREET,51.49657,-0.1428958,529012,179148
01/06/2012,EBURY STREET,51.493305,-0.1502891,528508,178772
01/06/2012,LEDBURY ROAD,51.517757,-0.2005963,524949,181404
01/06/2012,LOWER BELGRAVE STREET,51.496597,-0.1480092,528657,179142
01/06/2012,Not Recorded,0.0,0.0,0,0
01/06/2012,VICTORIA STREET,51.49657,-0.1428958,529012,179148
11/07/2012,COVENTRY STREET,51.510105,-0.1334536,529629,180669
11/07/2012,GEORGE STREET,51.517452,-0.1553787,528087,181448
11/07/2012,Not Recorded,0.0,0.0,0,0
11/07/2012,VAUXHALL BRIDGE ROAD,51.490948,-0.1342075,529631,178538
11/07/2012,WINDSOR PLACE,51.495216,-0.1380958,529349,179006
30/04/2012,ARTESIAN ROAD,51.51562,-0.1961116,525266,181174
30/04/2012,CHURTON STREET,51.491356,-0.1390022,529297,178575
30/04/2012,MARYLEBONE ROAD,51.52324,-0.1504129,528415,182100
30/04/2012,Not Recorded,0.0,0.0,0,0
31/05/2013,BUCKINGHAM PALACE ROAD,51.492702,-0.147683,528691,178709
31/05/2013,CHURTON STREET,51.491356,-0.1390022,529297,178575
31/05/2013,HARROW ROAD,51.52653,-0.2079486,524415,182367
31/05/2013,LONGMOORE STREET,51.492905,-0.1396595,529247,178746
31/05/2013,MARBLE ARCH,51.513344,-0.1590076,527847,180985
31/05/2013,OXENDON STREET,51.510296,-0.1322928,529709,180693
31/05/2013,PARK ROAD,51.529495,-0.1671315,527238,182766
31/05/2013,PENFOLD PLACE,51.521122,-0.170337,527039,181830
31/05/2013,PICCADILLY,51.50311,-0.1497623,528517,179863
31/05/2013,UPPER TACHBROOK STREET,51.49351,-0.139593,529250,178813
31/05/2013,VAUXHALL BRIDGE ROAD,51.490948,-0.1342075,529631,178538
31/05/2013,WILTON ROAD,51.49502,-0.1426527,529033,178976
06/07/2013,BAKER STREET,51.51945,-0.156278,528019,181669
06/07/2013,DORSET STREET,51.519207,-0.1578158,527913,181639
06/07/2013,LUXBOROUGH STREET,51.52266,-0.1542456,528151,182029
06/07/2013,MANCHESTER STREET,51.518444,-0.1538684,528189,181561
06/07/2013,MARYLEBONE ROAD,51.52324,-0.1504129,528415,182100
06/07/2013,PORTMAN CLOSE,51.516697,-0.1567207,527996,181362
07/03/2013,BUCKINGHAM GATE,51.500042,-0.1407178,529153,179537
07/03/2013,BUCKINGHAM PALACE ROAD,51.492702,-0.147683,528691,178709
07/03/2013,CUMBERLAND STREET,51.48857,-0.1441861,528945,178256
07/03/2013,HANWAY STREET,51.509796,-0.1279754,530010,180645
07/03/2013,JERMYN STREET,51.507893,-0.1383138,529298,180415
07/03/2013,PICCADILLY,51.50311,-0.1497623,528517,179863
07/03/2013,VICTORIA STREET,51.49657,-0.1428958,529012,179148
11/12/2012,ALDRIDGE ROAD VILLAS,51.51832,-0.1994932,525024,181468
11/12/2012,BUCKINGHAM PALACE ROAD,51.492702,-0.147683,528691,178709
11/12/2012,HAYMARKET,51.510117,-0.1333568,529636,180671
11/12/2012,JERMYN STREET,51.507893,-0.1383138,529298,180415
11/12/2012,PORCHESTER ROAD,51.517197,-0.1881652,525813,181363
11/12/2012,VICTORIA STREET,51.49657,-0.1428958,529012,179148
11/12/2012,WESTBOURNE PARK PASSAGE,51.518177,-0.1934737,525442,181463
23/08/2012,BAYSWATER ROAD,51.512917,-0.1632581,527553,180930
23/08/2012,BRESSENDEN PLACE,51.497925,-0.1431145,528993,179298
23/08/2012,CASTLE LANE,51.49843,-0.139204,529263,179361
23/08/2012,HATHERLEY STREET,51.493114,-0.1370003,529431,178774
23/08/2012,PALACE PLACE,51.499046,-0.1425357,529030,179424
23/08/2012,PALACE STREET,51.496956,-0.139264,529263,179197
23/08/2012,TERMINUS PLACE,51.49606,-0.1447318,528886,179088
23/08/2012,VAUXHALL BRIDGE,51.488647,-0.129375,529973,178291
24/07/2013,ARTILLERY ROW,51.49695,-0.1356048,529517,179203
24/07/2013,BAKER STREET,51.51945,-0.156278,528019,181669
24/07/2013,GILLINGHAM STREET,51.49421,-0.1408741,529159,178889
24/07/2013,Not Recorded,51.535774,-0.1711766,526940,183458
24/07/2013,ORSETT TERRACE,51.517742,-0.1842952,526080,181430
24/07/2013,PADDINGTON STREET,51.520657,-0.1539374,528178,181807
24/07/2013,PORTER STREET,51.52162,-0.1564786,527999,181910
24/07/2013,ST ALBAN'S STREET,51.50925,-0.133373,529637,180575
24/07/2013,TERMINUS PLACE,51.49606,-0.1447318,528886,179088
24/07/2013,VAUXHALL BRIDGE ROAD,51.490948,-0.1342075,529631,178538
24/07/2013,WILCOX PLACE,51.49671,-0.1370696,529416,179174
01/03/2013,EDGWARE ROAD,51.517857,-0.1671549,527269,181472
01/03/2013,FRITH STREET,51.514004,-0.1317807,529734,181106
01/03/2013,HUGH STREET,51.49281,-0.1449647,528879,178726
01/03/2013,VAUXHALL BRIDGE ROAD,51.490948,-0.1342075,529631,178538
01/03/2013,VICTORIA STREET,51.49657,-0.1428958,529012,179148
05/05/2012,GREEK STREET,51.51426,-0.1310207,529786,181136
05/05/2012,Not Recorded,0.0,0.0,0,0
02/03/2013,OXFORD STREET,51.51545,-0.1406854,529112,181251
02/03/2013,RUPERT STREET,51.511482,-0.1330534,529653,180823
20/07/2012,BUCKINGHAM GATE,51.500042,-0.1407178,529153,179537
20/07/2012,CASTLE LANE,51.49843,-0.139204,529263,179361
20/07/2012,FORSET STREET,51.51656,-0.1643671,527466,181333
20/07/2012,Not Recorded,0.0,0.0,0,0
20/07/2012,SHAVER'S PLACE,51.509686,-0.1328365,529673,180624
20/07/2012,WILTON ROAD,51.49502,-0.1426527,529033,178976
10/06/2012,DUCK LANE,51.51399,-0.134808,529524,181099
24/07/2012,BRIDGE PLACE,51.49338,-0.1446252,528901,178790
24/07/2012,BUCKINGHAM PALACE ROAD,51.492702,-0.147683,528691,178709
24/07/2012,ECCLESTON SQUARE,51.492588,-0.1428849,529024,178705
24/07/2012,GREAT WESTERN ROAD,51.520588,-0.2003406,524959,181719
24/07/2012,HOP GARDENS,51.51073,-0.1257897,530159,180753
24/07/2012,PRAED STREET,51.515957,-0.1749476,526734,181248
24/07/2012,ST JAMES'S MARKET,51.50925,-0.133373,529637,180575
24/07/2012,STRAND,51.51,-0.1257437,530373,180503
24/07/2012,WATERLOO BRIDGE,51.506084,-0.1147406,530939,180256
24/07/2012,WHITCOMB STREET,51.50816,-0.1297861,529889,180460
02/09/2012,ARTESIAN ROAD,51.51562,-0.1961116,525266,181174
02/09/2012,CHEPSTOW ROAD,51.51568,-0.195259,525325,181182
02/09/2012,CLIFTON PLACE,51.513508,-0.1734238,526846,180978
02/09/2012,WESTBOURNE PARK ROAD,51.51799,-0.1911462,525604,181446
07/11/2012,BELL STREET,51.52132,-0.1680803,527195,181856
07/11/2012,BROAD SANCTUARY,51.499565,-0.1293458,529944,179505
07/11/2012,BUCKINGHAM PALACE ROAD,51.492702,-0.147683,528691,178709
07/11/2012,ECCLESTON BRIDGE,51.494102,-0.1466265,528760,178867
07/11/2012,ECCLESTON SQUARE,51.492588,-0.1428849,529024,178705
07/11/2012,GUILDHOUSE STREET,51.492256,-0.1412849,529136,178671
07/11/2012,MELCOMBE PLACE,51.52232,-0.1624039,527586,181977
07/11/2012,Not Recorded,0.0,0.0,0,0
07/11/2012,PARLIAMENT SQUARE,51.5002,-0.1262508,530157,179581
07/11/2012,TERMINUS PLACE,51.49606,-0.1447318,528886,179088
07/11/2012,VAUXHALL BRIDGE,51.488647,-0.129375,529973,178291
07/11/2012,WARWICK WAY,51.490376,-0.1462504,528797,178453
07/11/2012,WHITEHALL,51.505646,-0.1266961,530111,180185
07/11/2012,WILTON ROAD,51.49502,-0.1426527,529033,178976
18/11/2012,BAYSWATER ROAD,51.512917,-0.1632581,527553,180930
18/11/2012,GILLINGHAM ROW,51.49408,-0.1407208,529170,178875
18/11/2012,VAUXHALL BRIDGE ROAD,51.490948,-0.1342075,529631,178538
18/11/2012,WILTON ROAD,51.49502,-0.1426527,529033,178976
02/05/2013,GLOUCESTER PLACE,51.5191,-0.1584399,527870,181626
02/05/2013,GROSVENOR GARDENS,51.495914,-0.1454804,528835,179070
02/05/2013,NEATHOUSE PLACE,51.49457,-0.1421307,529071,178927
02/05/2013,ST GEORGE'S SQUARE,51.485893,-0.1335929,529688,177977
02/05/2013,TERMINUS PLACE,51.49606,-0.1447318,528886,179088
02/05/2013,VAUXHALL BRIDGE ROAD,51.490948,-0.1342075,529631,178538
02/05/2013,VICTORIA STREET,51.49657,-0.1428958,529012,179148
02/05/2013,WILTON ROAD,51.49502,-0.1426527,529033,178976
17/04/2013,CARLISLE PLACE,51.495937,-0.1414665,529113,179080
17/04/2013,ELIZABETH STREET,51.493107,-0.149751,528546,178750
17/04/2013,PARK LANE,51.506317,-0.1523064,528332,180215
17/04/2013,ST GEORGE'S DRIVE,51.48896,-0.1398633,529244,178307
17/04/2013,VAUXHALL BRIDGE ROAD,51.490948,-0.1342075,529631,178538
17/04/2013,WARWICK WAY,51.490376,-0.1462504,528797,178453
17/04/2013,WILTON ROAD,51.49502,-0.1426527,529033,178976
13/02/2013,BELGRAVE ROAD,51.49032,-0.138078,529364,178461
13/02/2013,CRAWFORD PLACE,51.517654,-0.1666707,527303,181451
13/02/2013,ECCLESTON BRIDGE,51.494102,-0.1466265,528760,178867
13/02/2013,ECCLESTON SQUARE,51.492588,-0.1428849,529024,178705
13/02/2013,GREAT CUMBERLAND PLACE,51.514194,-0.1593441,527821,181079
13/02/2013,GROSVENOR GARDENS,51.495914,-0.1454804,528835,179070
13/02/2013,HAYMARKET,51.510117,-0.1333568,529636,180671
13/02/2013,PICCADILLY,51.50311,-0.1497623,528517,179863
13/02/2013,SHAFTESBURY AVENUE,51.511116,-0.1335539,529619,180782
13/02/2013,SHERWOOD STREET,51.510372,-0.1352728,529502,180696
13/02/2013,TAVISTOCK CRESCENT,51.520363,-0.200926,524919,181693
13/02/2013,TERMINUS PLACE,51.49606,-0.1447318,528886,179088
13/02/2013,WESTBOURNE PARK VILLAS,51.518692,-0.1889706,525753,181528
13/02/2013,WILTON ROAD,51.49502,-0.1426527,529033,178976
30/05/2012,BAYSWATER ROAD,51.512917,-0.1632581,527553,180930
30/05/2012,BRIDGE PLACE,51.49338,-0.1446252,528901,178790
30/05/2012,BUCKINGHAM PALACE ROAD,51.492702,-0.147683,528691,178709
30/05/2012,BULLEID WAY,51.493763,-0.1455167,528838,178831
30/05/2012,CARLTON HILL,51.536186,-0.1821621,526177,183485
30/05/2012,ECCLESTON BRIDGE,51.494102,-0.1466265,528760,178867
30/05/2012,ELIZABETH STREET,51.493107,-0.149751,528546,178750
30/05/2012,Not Recorded,0.0,0.0,0,0
30/05/2012,PALL MALL,51.50619,-0.135376,529507,180231
30/05/2012,PENFOLD PLACE,51.521122,-0.170337,527039,181830
30/05/2012,PORCHESTER ROAD,51.517197,-0.1881652,525813,181363
30/05/2012,THORNGATE ROAD,51.52552,-0.1930613,525451,182280
30/05/2012,WESTBOURNE PARK VILLAS,51.518692,-0.1889706,525753,181528
30/05/2012,WHITEHALL,51.505646,-0.1266961,530111,180185
09/05/2012,BUCKINGHAM PALACE ROAD,51.492702,-0.147683,528691,178709
09/05/2012,EBURY BRIDGE ROAD,51.488445,-0.1507495,528490,178230
09/05/2012,ECCLESTON PLACE,51.49433,-0.1473808,528707,178891
09/05/2012,Not Recorded,0.0,0.0,0,0
09/05/2012,TERMINUS PLACE,51.49606,-0.1447318,528886,179088
09/05/2012,WARWICK AVENUE,51.523655,-0.1851843,526002,182086
26/07/2013,BERWICK STREET,51.513866,-0.1351638,529500,181085
26/07/2013,BOURCHIER STREET,51.512947,-0.1328859,529660,180986
26/07/2013,BUCKINGHAM PALACE ROAD,51.492702,-0.147683,528691,178709
26/07/2013,ELIZABETH STREET,51.493107,-0.149751,528546,178750
26/07/2013,HILL ROAD,51.532055,-0.1796162,526365,183030
26/07/2013,LEICESTER SQUARE,51.510597,-0.1308323,529810,180729
26/07/2013,NORRIS STREET,51.50922,-0.1324238,529703,180573
26/07/2013,Not Recorded,0.0,0.0,0,0
30/07/2013,ASHLEY PLACE,51.496082,-0.141601,529103,179096
30/07/2013,CHEPSTOW ROAD,51.51568,-0.195259,525325,181182
30/07/2013,FRANCIS STREET,51.496666,-0.1370714,529416,179169
30/07/2013,GROSVENOR PLACE,51.500652,-0.1497466,528525,179590
30/07/2013,PORTMAN SQUARE,51.515068,-0.1565416,528013,181181
30/07/2013,REGENT STREET,51.516247,-0.1423526,528994,181336
30/07/2013,ST ALBAN'S STREET,51.50925,-0.133373,529637,180575
30/07/2013,VICTORIA STREET,51.49657,-0.1428958,529012,179148
29/10/2012,LISLE STREET,51.511753,-0.1293796,529907,180860
29/10/2012,ORANGE STREET,51.509495,-0.1299477,529874,180608
29/10/2012,RUPERT STREET,51.511482,-0.1330534,529653,180823
29/10/2012,ST JAMES'S MARKET,51.50925,-0.133373,529637,180575
29/10/2012,TACHBROOK STREET,51.49196,-0.1384015,529337,178643
03/11/2012,BUCKINGHAM PALACE ROAD,51.492702,-0.147683,528691,178709
03/11/2012,ECCLESTON BRIDGE,51.494102,-0.1466265,528760,178867
03/11/2012,GUILDHOUSE STREET,51.492256,-0.1412849,529136,178671
19/02/2013,BAYSWATER ROAD,51.512917,-0.1632581,527553,180930
19/02/2013,BUCKINGHAM PALACE ROAD,51.492702,-0.147683,528691,178709
19/02/2013,DUKE OF WELLINGTON PLACE,51.5025,-0.1498459,528513,179795
19/02/2013,ECCLESTON BRIDGE,51.494102,-0.1466265,528760,178867
19/02/2013,HARROW ROAD,51.52653,-0.2079486,524415,182367
19/02/2013,MARYLEBONE ROAD,51.52324,-0.1504129,528415,182100
19/02/2013,Not Recorded,0.0,0.0,0,0
19/02/2013,RANELAGH BRIDGE,51.518288,-0.1858446,525971,181488
19/02/2013,TALBOT ROAD,51.51696,-0.1990566,525058,181318
19/02/2013,VICTORIA STREET,51.49657,-0.1428958,529012,179148
05/09/2013,BELGRAVE ROAD,51.49032,-0.138078,529364,178461
05/09/2013,BUCKINGHAM GATE,51.500042,-0.1407178,529153,179537
05/09/2013,ECCLESTON SQUARE,51.492588,-0.1428849,529024,178705
05/09/2013,HUGH STREET,51.49281,-0.1449647,528879,178726
05/09/2013,LUPUS STREET,51.48819,-0.1381329,529366,178224
05/09/2013,PICCADILLY CIRCUS,51.510098,-0.134549,529553,180667
05/09/2013,PORTMAN SQUARE,51.515068,-0.1565416,528013,181181
05/09/2013,VAUXHALL BRIDGE ROAD,51.490948,-0.1342075,529631,178538
05/09/2013,VICTORIA STREET,51.49657,-0.1428958,529012,179148
06/04/2012,BUCKINGHAM PALACE ROAD,51.492702,-0.147683,528691,178709
06/04/2012,Not Recorded,0.0,0.0,0,0
08/05/2012,CRANBOURN ALLEY,51.51092,-0.1287074,529956,180769
08/05/2012,PICCADILLY CIRCUS,51.510098,-0.134549,529553,180667
08/05/2012,TALBOT ROAD,51.51669,-0.2009664,524926,181284
08/05/2012,WESTBOURNE CRESCENT,51.513447,-0.1775956,526557,180964
04/07/2013,ECCLESTON BRIDGE,51.494102,-0.1466265,528760,178867
04/07/2013,SEYMOUR STREET,51.514755,-0.1582982,527892,181143
04/07/2013,UPPER TACHBROOK STREET,51.49351,-0.139593,529250,178813
04/07/2013,VAUXHALL BRIDGE ROAD,51.490948,-0.1342075,529631,178538
04/07/2013,VICTORIA EMBANKMENT,51.501163,-0.1239505,530314,179692
04/07/2013,VICTORIA STREET,51.49657,-0.1428958,529012,179148
04/07/2013,WARWICK WAY,51.490376,-0.1462504,528797,178453
04/07/2013,WILTON ROAD,51.49502,-0.1426527,529033,178976
10/08/2012,ALFRED ROAD,51.52155,-0.1928357,525477,181839
10/08/2012,BUCKINGHAM PALACE ROAD,51.492702,-0.147683,528691,178709
10/08/2012,ECCLESTON SQUARE,51.492588,-0.1428849,529024,178705
10/08/2012,HAYMARKET,51.510117,-0.1333568,529636,180671
10/08/2012,VAUXHALL BRIDGE ROAD,51.490948,-0.1342075,529631,178538
10/08/2012,WARWICK WAY,51.490376,-0.1462504,528797,178453
10/08/2012,WHITCOMB STREET,51.50816,-0.1297861,529889,180460
17/08/2012,ALLINGTON STREET,51.497196,-0.1445117,528898,179214
17/08/2012,BALCOMBE STREET,51.524136,-0.1623596,527584,182179
17/08/2012,ELGIN AVENUE,51.52462,-0.2001094,524964,182168
17/08/2012,LORD HILL'S BRIDGE,51.518692,-0.1889706,525753,181528
17/08/2012,VICTORIA STREET,51.49657,-0.1428958,529012,179148
17/08/2012,WESTBOURNE GROVE,51.515175,-0.1939386,525418,181128
05/05/2013,BRIDGE PLACE,51.49338,-0.1446252,528901,178790
05/05/2013,BUCKINGHAM PALACE ROAD,51.492702,-0.147683,528691,178709
05/05/2013,ECCLESTON BRIDGE,51.494102,-0.1466265,528760,178867
13/05/2012,Not Recorded,0.0,0.0,0,0
13/05/2012,ORANGE YARD,51.51479,-0.1303793,529829,181196
13/05/2012,SOHO SQUARE,51.515438,-0.1316931,529736,181266
01/11/2012,BUCKINGHAM GATE,51.500042,-0.1407178,529153,179537
01/11/2012,TERMINUS PLACE,51.49606,-0.1447318,528886,179088
01/11/2012,VAUXHALL BRIDGE ROAD,51.490948,-0.1342075,529631,178538
01/11/2012,VICTORIA STREET,51.49862,-0.1318916,529770,179395
01/11/2012,WILTON ROAD,51.49502,-0.1426527,529033,178976
02/02/2013,WATERLOO BRIDGE,51.506084,-0.1147406,530939,180256
02/02/2013,WILTON ROAD,51.49502,-0.1426527,529033,178976
23/12/2012,BUCKINGHAM PALACE ROAD,51.492702,-0.147683,528691,178709
23/12/2012,ELIZABETH BRIDGE,51.49252,-0.1477711,528685,178689
23/12/2012,MARYLEBONE ROAD,51.52324,-0.1504129,528415,182100
23/12/2012,ST GEORGE'S DRIVE,51.48896,-0.1398633,529244,178307
23/12/2012,WILTON ROAD,51.49502,-0.1426527,529033,178976
26/05/2013,BLOOMFIELD PLACE,51.511593,-0.1448416,528835,180815
01/10/2012,BRIDGE PLACE,51.49338,-0.1446252,528901,178790
01/10/2012,CHAPTER STREET,51.491985,-0.132811,529725,178656
01/10/2012,GILLINGHAM STREET,51.49421,-0.1408741,529159,178889
01/10/2012,GREAT WINDMILL STREET,51.510685,-0.1339126,529596,180733
01/10/2012,HAYMARKET,51.510117,-0.1333568,529636,180671
01/10/2012,KILBURN LANE,51.53131,-0.2153301,523890,182886
01/10/2012,LEDBURY ROAD,51.517757,-0.2005963,524949,181404
01/10/2012,LUPUS STREET,51.48819,-0.1381329,529366,178224
01/10/2012,MARSHAM STREET,51.495365,-0.1291577,529969,179038
01/10/2012,PAGE STREET,51.493935,-0.1294431,529953,178878
01/10/2012,SHAFTESBURY AVENUE,51.511116,-0.1335539,529619,180782
01/10/2012,STRUTTON GROUND,51.496624,-0.1336809,529652,179170
01/10/2012,THIRD AVENUE,51.530933,-0.2093684,524305,182854
01/10/2012,VAUXHALL BRIDGE ROAD,51.490948,-0.1342075,529631,178538
01/10/2012,WILTON ROAD,51.49502,-0.1426527,529033,178976
01/07/2012,BRAVINGTON ROAD,51.52727,-0.2046325,524643,182455
01/07/2012,WESTBOURNE PARK ROAD,51.517452,-0.2029289,524788,181366
28/06/2013,BELGRAVE ROAD,51.49032,-0.138078,529364,178461
28/06/2013,BESSBOROUGH STREET,51.48894,-0.1326784,529743,178317
28/06/2013,BRIDGE PLACE,51.49338,-0.1446252,528901,178790
28/06/2013,BUCKINGHAM PALACE ROAD,51.492702,-0.147683,528691,178709
28/06/2013,CAMBRIDGE STREET,51.488537,-0.1403703,529210,178259
28/06/2013,CHURTON STREET,51.491356,-0.1390022,529297,178575
28/06/2013,GILLINGHAM STREET,51.49421,-0.1408741,529159,178889
28/06/2013,HUGH STREET,51.49281,-0.1449647,528879,178726
28/06/2013,NEW PALACE YARD,51.500603,-0.1261623,530162,179626
28/06/2013,PADDINGTON STREET,51.520657,-0.1539374,528178,181807
28/06/2013,RAMPAYNE STREET,51.489117,-0.1338934,529658,178335
28/06/2013,VICTORIA STREET,51.49657,-0.1428958,529012,179148
15/11/2012,BERWICK STREET,51.513866,-0.1351638,529500,181085
15/11/2012,EBURY BRIDGE ROAD,51.488445,-0.1507495,528490,178230
15/11/2012,LUPUS STREET,51.48819,-0.1381329,529366,178224
15/11/2012,PORCHESTER TERRACE NORTH,51.516846,-0.1861623,525953,181327
15/11/2012,RUPERT STREET,51.511482,-0.1330534,529653,180823
11/05/2013,BUCKINGHAM PALACE ROAD,51.492702,-0.147683,528691,178709
11/05/2013,EBURY STREET,51.493305,-0.1502891,528508,178772
11/05/2013,ECCLESTON STREET,51.49477,-0.1485436,528625,178937
